{"id":"aichi-tokai-onair-2026-toshimitsu","work":"東海オンエア","title":"としみつマンホール（中央総合公園）","character":"としみつ","landmark":"中央総合公園","prefecture":"愛知県","city":"岡崎市","address":"愛知県岡崎市高隆寺町","lat":34.94854516224639,"lng":137.21570370240784,"source_url":"https://okazaki-kanko.jp/course/5246","coordinate_source_url":"https://okazaki-kanko.jp/gmap?latitude=34.94854516224639&longitude=137.21570370240784&name=%E3%81%A8%E3%81%97%E3%81%BF%E3%81%A4%E3%83%9E%E3%83%B3%E3%83%9B%E3%83%BC%E3%83%AB%EF%BC%88%E4%B8%AD%E5%A4%AE%E7%B7%8F%E5%90%88%E5%85%AC%E5%9C%92%EF%BC%89","coordinate_method":"official_google_map_link","installation_status":"installed","status":"active","verified_at":"2026-07-05"}
{"id":"aichi-tokai-onair-2026-mushimegane","work":"東海オンエア","title":"虫眼鏡マンホール（東公園動物園）","character":"虫眼鏡","landmark":"東公園動物園","prefecture":"愛知県","city":"岡崎市","address":"愛知県岡崎市欠町","lat":34.95549816859586,"lng":137.19407155729166,"source_url":"https://okazaki-kanko.jp/course/5246","coordinate_source_url":"https://okazaki-kanko.jp/gmap?latitude=34.95549816859586&longitude=137.19407155729166&name=%E8%99%AB%E7%9C%BC%E9%8F%A1%E3%83%9E%E3%83%B3%E3%83%9B%E3%83%BC%E3%83%AB%EF%BC%88%E6%9D%B1%E5%85%AC%E5%9C%92%E5%8B%95%E7%89%A9%E5%9C%92%EF%BC%89","coordinate_method":"official_google_map_link","installation_status":"installed","status":"active","verified_at":"2026-07-05"}
{"id":"aichi-tokai-onair-2026-ryo","work":"東海オンエア","title":"りょうマンホール（岡崎城公園）","character":"りょう","landmark":"岡崎城公園","prefecture":"愛知県","city":"岡崎市","address":"愛知県岡崎市康生町","lat":34.95810083047207,"lng":137.159049539148,"source_url":"https://okazaki-kanko.jp/course/5246","coordinate_source_url":"https://okazaki-kanko.jp/gmap?latitude=34.95810083047207&longitude=137.159049539148&name=%E3%82%8A%E3%82%87%E3%81%86%E3%83%9E%E3%83%B3%E3%83%9B%E3%83%BC%E3%83%AB%EF%BC%88%E5%B2%A1%E5%B4%8E%E5%9F%8E%E5%85%AC%E5%9C%92%EF%BC%89","coordinate_method":"official_google_map_link","installation_status":"installed","status":"active","verified_at":"2026-07-05"}
{"id":"aichi-tokai-onair-2026-shibayu","work":"東海オンエア","title":"しばゆーマンホール（岡崎市図書館交流プラザりぶら）","character":"しばゆー","landmark":"岡崎市図書館交流プラザりぶら","prefecture":"愛知県","city":"岡崎市","address":"愛知県岡崎市康生通西4丁目71","lat":34.959389017734026,"lng":137.15859454100033,"source_url":"https://okazaki-kanko.jp/course/5246","coordinate_source_url":"https://okazaki-kanko.jp/gmap?latitude=34.959389017734026&longitude=137.15859454100033&name=%E3%81%97%E3%81%B0%E3%82%86%E3%83%BC%E3%83%9E%E3%83%B3%E3%83%9B%E3%83%BC%E3%83%AB%EF%BC%88%E5%B2%A1%E5%B4%8E%E5%B8%82%E5%9B%B3%E6%9B%B8%E9%A4%A8%E4%BA%A4%E6%B5%81%E3%83%97%E3%83%A9%E3%82%B6%E3%82%8A%E3%81%B6%E3%82%89%EF%BC%89","coordinate_method":"official_google_map_link","installation_status":"installed","status":"active","verified_at":"2026-07-05"}
{"id":"aichi-tokai-onair-2026-yumemaru","work":"東海オンエア","title":"ゆめまるマンホール（中岡崎駅）","character":"ゆめまる","landmark":"中岡崎駅ロータリー","prefecture":"愛知県","city":"岡崎市","address":"愛知県岡崎市中岡崎町","lat":34.955962697006015,"lng":137.15286833204186,"source_url":"https://okazaki-kanko.jp/course/5246","coordinate_source_url":"https://okazaki-kanko.jp/gmap?latitude=34.955962697006015&longitude=137.15286833204186&name=%E3%82%86%E3%82%81%E3%81%BE%E3%82%8B%E3%83%9E%E3%83%B3%E3%83%9B%E3%83%BC%E3%83%AB%EF%BC%88%E4%B8%AD%E5%B2%A1%E5%B4%8E%E9%A7%85%EF%BC%89","coordinate_method":"official_google_map_link","installation_status":"installed","status":"active","verified_at":"2026-07-05"}
{"id":"aichi-tokai-onair-2026-tetsuya","work":"東海オンエア","title":"てつやマンホール（六名公園）","character":"てつや","landmark":"六名公園","prefecture":"愛知県","city":"岡崎市","address":"愛知県岡崎市六名本町","lat":34.94212275475078,"lng":137.157681470639,"source_url":"https://okazaki-kanko.jp/course/5246","coordinate_source_url":"https://okazaki-kanko.jp/gmap?latitude=34.94212275475078&longitude=137.157681470639&name=%E3%81%A6%E3%81%A4%E3%82%84%E3%83%9E%E3%83%B3%E3%83%9B%E3%83%BC%E3%83%AB%EF%BC%88%E5%85%AD%E5%90%8D%E5%85%AC%E5%9C%92%EF%BC%89","coordinate_method":"official_google_map_link","installation_status":"installed","status":"active","verified_at":"2026-07-05"}
{"id":"aichi-tokai-onair-2026-peace-squared","work":"東海オンエア","title":"ピースの二乗のあいつマンホール（竜美ヶ丘公園）","character":"ピースの二乗のあいつ","landmark":"竜美ヶ丘公園","prefecture":"愛知県","city":"岡崎市","address":"愛知県岡崎市竜美東1丁目","lat":34.9418687449285,"lng":137.17478600613975,"source_url":"https://okazaki-kanko.jp/course/5246","coordinate_source_url":"https://okazaki-kanko.jp/gmap?latitude=34.9418687449285&longitude=137.17478600613975&name=%E3%83%94%E3%83%BC%E3%82%B9%E3%81%AE%E4%BA%8C%E4%B9%97%E3%81%AE%E3%81%82%E3%81%84%E3%81%A4%E3%83%9E%E3%83%B3%E3%83%9B%E3%83%BC%E3%83%AB%EF%BC%88%E7%AB%9C%E7%BE%8E%E3%83%B6%E4%B8%98%E5%85%AC%E5%9C%92%EF%BC%89","coordinate_method":"official_google_map_link","installation_status":"installed","status":"active","verified_at":"2026-07-05"}
{"id":"aichi-tokai-onair-2021-tetsuya","work":"東海オンエア","title":"てつやマンホール（東岡崎駅付近）","character":"てつや","landmark":"東岡崎駅付近","prefecture":"愛知県","city":"岡崎市","address":"愛知県岡崎市上明大寺町","lat":34.95300747456926,"lng":137.1685059523926,"source_url":"https://okazaki-kanko.jp/course/4000","coordinate_source_url":"https://okazaki-kanko.jp/gmap?latitude=34.95300747456926&longitude=137.1685059523926&name=%E3%81%A6%E3%81%A4%E3%82%84%E3%83%9E%E3%83%B3%E3%83%9B%E3%83%BC%E3%83%AB%EF%BC%88%E6%9D%B1%E5%B2%A1%E5%B4%8E%E9%A7%85%E4%BB%98%E8%BF%91%EF%BC%89","coordinate_method":"official_google_map_link","installation_status":"installed","status":"active","verified_at":"2026-07-05"}
{"id":"aichi-tokai-onair-2021-yumemaru","work":"東海オンエア","title":"ゆめまるマンホール（中央緑道）","character":"ゆめまる","landmark":"中央緑道","prefecture":"愛知県","city":"岡崎市","address":"愛知県岡崎市籠田町","lat":34.95832724818854,"lng":137.1671939785736,"source_url":"https://okazaki-kanko.jp/course/4000","coordinate_source_url":"https://okazaki-kanko.jp/gmap?latitude=34.95832724818854&longitude=137.1671939785736&name=%E3%82%86%E3%82%81%E3%81%BE%E3%82%8B%E3%83%9E%E3%83%B3%E3%83%9B%E3%83%BC%E3%83%AB%EF%BC%88%E4%B8%AD%E5%A4%AE%E7%B7%91%E9%81%93%EF%BC%89","coordinate_method":"official_google_map_link","installation_status":"installed","status":"active","verified_at":"2026-07-05"}
{"id":"aichi-tokai-onair-2021-ryo","work":"東海オンエア","title":"りょうマンホール（龍北総合運動場）","character":"りょう","landmark":"岡崎市龍北総合運動場","prefecture":"愛知県","city":"岡崎市","address":"愛知県岡崎市真伝町","lat":34.9811477,"lng":137.1882171,"source_url":"https://okazaki-kanko.jp/course/4000","coordinate_source_url":"https://okazaki-kanko.jp/gmap?latitude=34.9811477&longitude=137.1882171&name=%E3%82%8A%E3%82%87%E3%81%86%E3%83%9E%E3%83%B3%E3%83%9B%E3%83%BC%E3%83%AB%EF%BC%88%E9%BE%8D%E5%8C%97%E7%B7%8F%E5%90%88%E9%81%8B%E5%8B%95%E5%A0%B4%EF%BC%89","coordinate_method":"official_google_map_link","installation_status":"installed","status":"active","verified_at":"2026-07-05"}
{"id":"aichi-tokai-onair-2021-onair-bird","work":"東海オンエア","title":"オンエアバードマンホール（奥殿陣屋）","character":"オンエアバード","landmark":"奥殿陣屋 書院内","prefecture":"愛知県","city":"岡崎市","address":"愛知県岡崎市奥殿町雑谷下10","lat":35.029466,"lng":137.194792,"source_url":"https://okazaki-kanko.jp/course/4000","coordinate_source_url":"https://okazaki-kanko.jp/gmap?latitude=35.029466&longitude=137.194792&name=%E3%82%AA%E3%83%B3%E3%82%A8%E3%82%A2%E3%83%90%E3%83%BC%E3%83%89%E3%83%9E%E3%83%B3%E3%83%9B%E3%83%BC%E3%83%AB%EF%BC%88%E5%A5%A5%E6%AE%BF%E9%99%A3%E5%B1%8B%EF%BC%89","coordinate_method":"official_google_map_link","installation_status":"indoor_display","status":"active","note":"南公園の再整備工事に伴い奥殿陣屋の書院内で展示","verified_at":"2026-07-05"}
{"id":"aichi-tokai-onair-2021-mushimegane","work":"東海オンエア","title":"虫眼鏡マンホール（出会いの杜公園）","character":"虫眼鏡","landmark":"出会いの杜公園","prefecture":"愛知県","city":"岡崎市","address":"愛知県岡崎市柱町下荒子","lat":34.924444670245975,"lng":137.15835305291753,"source_url":"https://okazaki-kanko.jp/course/4000","coordinate_source_url":"https://okazaki-kanko.jp/gmap?latitude=34.924444670245975&longitude=137.15835305291753&name=%E8%99%AB%E7%9C%BC%E9%8F%A1%E3%83%9E%E3%83%B3%E3%83%9B%E3%83%BC%E3%83%AB%EF%BC%88%E5%87%BA%E4%BC%9A%E3%81%84%E3%81%AE%E6%9D%9C%E5%85%AC%E5%9C%92%EF%BC%89","coordinate_method":"official_google_map_link","installation_status":"installed","status":"active","verified_at":"2026-07-05"}
{"id":"aichi-tokai-onair-2021-shibayu","work":"東海オンエア","title":"しばゆーマンホール（西岡崎駅）","character":"しばゆー","landmark":"西岡崎駅","prefecture":"愛知県","city":"岡崎市","address":"愛知県岡崎市昭和町","lat":34.9466828829664,"lng":137.12244432698364,"source_url":"https://okazaki-kanko.jp/course/4000","coordinate_source_url":"https://okazaki-kanko.jp/gmap?latitude=34.9466828829664&longitude=137.12244432698364&name=%E3%81%97%E3%81%B0%E3%82%86%E3%83%BC%E3%83%9E%E3%83%B3%E3%83%9B%E3%83%BC%E3%83%AB%EF%BC%88%E8%A5%BF%E5%B2%A1%E5%B4%8E%E9%A7%85%EF%BC%89","coordinate_method":"official_google_map_link","installation_status":"installed","status":"active","verified_at":"2026-07-05"}
{"id":"aichi-tokai-onair-2021-toshimitsu","work":"東海オンエア","title":"としみつマンホール（道の駅 藤川宿）","character":"としみつ","landmark":"道の駅 藤川宿","prefecture":"愛知県","city":"岡崎市","address":"愛知県岡崎市藤川町東沖田44","lat":34.91386094338691,"lng":137.2171543227539,"source_url":"https://okazaki-kanko.jp/course/4000","coordinate_source_url":"https://okazaki-kanko.jp/gmap?latitude=34.91386094338691&longitude=137.2171543227539&name=%E3%81%A8%E3%81%97%E3%81%BF%E3%81%A4%E3%83%9E%E3%83%B3%E3%83%9B%E3%83%BC%E3%83%AB%EF%BC%88%E9%81%93%E3%81%AE%E9%A7%85%E3%80%8C%E8%97%A4%E5%B7%9D%E5%AE%BF%E3%80%8D%EF%BC%89","coordinate_method":"official_google_map_link","installation_status":"installed","status":"active","verified_at":"2026-07-05"}
{"id":"aichi-idolmaster-maekawa-miku","work":"アイドルマスター シンデレラガールズ","title":"前川みく×とこにゃん（ふたマス!!!!!!）","character":"前川みく","landmark":"りんくう常滑駅北口広場","prefecture":"愛知県","city":"常滑市","address":"愛知県常滑市りんくう町3丁目","lat":34.880154,"lng":136.828192,"source_url":"https://www.city.tokoname.aichi.jp/shisei/guide/1002804/1009076/1008204.html","source_map_url":"https://www.google.co.jp/maps/place//@34.8799893,136.829,18.5z/data=!4m6!1m5!3m4!2zMzTCsDUyJzQ4LjYiTiAxMzbCsDQ5JzQxLjUiRQ!8m2!3d34.880154!4d136.828192?entry=ttu","coordinate_source_url":"https://www.google.com/maps?q=34.880154,136.828192","coordinate_method":"municipal_google_map_link","installation_status":"installed","status":"active","verified_at":"2026-07-05"}
