[
  {
    "id": "comprehensive-6",
    "name": "フシギダネマンホール",
    "description": "緑豊かなフシギダネのデザイン",
    "prefecture": "群馬県",
    "city": "太田市",
    "address": "群馬県太田市本町29-1",
    "latitude": 36.2928,
    "longitude": 139.3761,
    "source_url": "https://example.com/bulbasaur-manhole",
    "is_visited": false
  },
  {
    "id": "comprehensive-7",
    "name": "ヒトカゲマンホール",
    "description": "炎を吐くヒトカゲの力強いデザイン",
    "prefecture": "静岡県",
    "city": "熱海市",
    "address": "静岡県熱海市田原本町9-1",
    "latitude": 35.0960,
    "longitude": 139.0731,
    "source_url": "https://example.com/charmander-manhole",
    "is_visited": false
  },
  {
    "id": "comprehensive-8",
    "name": "ゼニガメマンホール",
    "description": "水辺で遊ぶゼニガメの可愛いデザイン",
    "prefecture": "神奈川県",
    "city": "鎌倉市",
    "address": "神奈川県鎌倉市小町1-5-15",
    "latitude": 35.3183,
    "longitude": 139.5519,
    "source_url": "https://example.com/squirtle-manhole",
    "is_visited": false
  },
  {
    "id": "comprehensive-9",
    "name": "ラプラスマンホール",
    "description": "優雅に泳ぐラプラスのデザイン",
    "prefecture": "石川県",
    "city": "金沢市",
    "address": "石川県金沢市香林坊2-1-1",
    "latitude": 36.5619,
    "longitude": 136.6551,
    "source_url": "https://example.com/lapras-manhole",
    "is_visited": false
  },
  {
    "id": "comprehensive-10",
    "name": "ミュウマンホール",
    "description": "幻のポケモンミュウの神秘的なデザイン",
    "prefecture": "奈良県",
    "city": "奈良市",
    "address": "奈良県奈良市三条本町1-1",
    "latitude": 34.6851,
    "longitude": 135.8048,
    "source_url": "https://example.com/mew-manhole",
    "is_visited": false
  },
  {
    "id": "comprehensive-11",
    "name": "ルギアマンホール",
    "description": "空を舞うルギアの壮大なデザイン",
    "prefecture": "福岡県",
    "city": "福岡市",
    "address": "福岡県福岡市中央区天神1-1-1",
    "latitude": 33.5904,
    "longitude": 130.4017,
    "source_url": "https://example.com/lugia-manhole",
    "is_visited": false
  },
  {
    "id": "comprehensive-12",
    "name": "ホウオウマンホール",
    "description": "虹色に輝くホウオウの美しいデザイン",
    "prefecture": "愛知県",
    "city": "名古屋市",
    "address": "愛知県名古屋市中区栄3-15-33",
    "latitude": 35.1647,
    "longitude": 136.9066,
    "source_url": "https://example.com/ho-oh-manhole",
    "is_visited": false
  },
  {
    "id": "comprehensive-13",
    "name": "キモリマンホール",
    "description": "森の守護者キモリのデザイン",
    "prefecture": "鹿児島県",
    "city": "鹿児島市",
    "address": "鹿児島県鹿児島市中央町18-1",
    "latitude": 31.5966,
    "longitude": 130.5581,
    "source_url": "https://example.com/treecko-manhole",
    "is_visited": false
  },
  {
    "id": "comprehensive-14",
    "name": "アチャモマンホール",
    "description": "元気いっぱいアチャモのデザイン",
    "prefecture": "宮崎県",
    "city": "宮崎市",
    "address": "宮崎県宮崎市橘通東2-10-1",
    "latitude": 31.9077,
    "longitude": 131.4202,
    "source_url": "https://example.com/torchic-manhole",
    "is_visited": false
  },
  {
    "id": "comprehensive-15",
    "name": "ミズゴロウマンホール",
    "description": "水辺で跳ねるミズゴロウのデザイン",
    "prefecture": "高知県",
    "city": "高知市",
    "address": "高知県高知市帯屋町2-1-1",
    "latitude": 33.5597,
    "longitude": 133.5311,
    "source_url": "https://example.com/mudkip-manhole",
    "is_visited": false
  },
  {
    "id": "comprehensive-16",
    "name": "ナエトルマンホール",
    "description": "若葉が美しいナエトルのデザイン",
    "prefecture": "青森県",
    "city": "青森市",
    "address": "青森県青森市中央1-22-5",
    "latitude": 40.8245,
    "longitude": 140.7407,
    "source_url": "https://example.com/turtwig-manhole",
    "is_visited": false
  },
  {
    "id": "comprehensive-17",
    "name": "ヒコザルマンホール",
    "description": "活発なヒコザルの動きのあるデザイン",
    "prefecture": "岩手県",
    "city": "盛岡市",
    "address": "岩手県盛岡市内丸10-1",
    "latitude": 39.7036,
    "longitude": 141.1527,
    "source_url": "https://example.com/chimchar-manhole",
    "is_visited": false
  },
  {
    "id": "comprehensive-18",
    "name": "ツタージャマンホール",
    "description": "クールなツタージャのデザイン",
    "prefecture": "秋田県",
    "city": "秋田市",
    "address": "秋田県秋田市山王4-1-1",
    "latitude": 39.7186,
    "longitude": 140.1023,
    "source_url": "https://example.com/snivy-manhole",
    "is_visited": false
  },
  {
    "id": "comprehensive-19",
    "name": "ポカブマンホール",
    "description": "愛らしいポカブの温かいデザイン",
    "prefecture": "山形県",
    "city": "山形市",
    "address": "山形県山形市松波2-8-1",
    "latitude": 38.2404,
    "longitude": 140.3633,
    "source_url": "https://example.com/tepig-manhole",
    "is_visited": false
  },
  {
    "id": "comprehensive-20",
    "name": "ミジュマルマンホール",
    "description": "ホタチで遊ぶミジュマルのデザイン",
    "prefecture": "宮城県",
    "city": "仙台市",
    "address": "宮城県仙台市青葉区本町3-8-1",
    "latitude": 38.2682,
    "longitude": 140.8719,
    "source_url": "https://example.com/oshawott-manhole",
    "is_visited": false
  }
]