{"address": "佐賀県佐賀市唐人二丁目", "character": "源さくら", "city": "佐賀市", "first_seen": "2026-07-04T11:38:12Z", "id": "zls-1", "landmark": "唐人プラザビル", "last_updated": "2026-07-04T11:38:12Z", "lat": 33.256344, "lng": 130.299759, "map_mid": "1FPmlP9AkHBbCvQEnfLMQAkM-72-SANOO", "prefecture": "佐賀県", "source_url": "https://anime-zls.hamutane.com/manhole/zls-manhole/", "status": "active", "title": "佐賀市 唐人プラザビル「源さくら&バルーン」", "work": "ゾンビランドサガ"}
{"address": "佐賀県佐賀市城内二丁目", "character": "二階堂サキ", "city": "佐賀市", "first_seen": "2026-07-04T11:38:12Z", "id": "zls-2", "landmark": "佐賀城・鯱の門", "last_updated": "2026-07-04T11:38:12Z", "lat": 33.246159, "lng": 130.3026375, "map_mid": "1FPmlP9AkHBbCvQEnfLMQAkM-72-SANOO", "prefecture": "佐賀県", "source_url": "https://anime-zls.hamutane.com/manhole/zls-manhole/", "status": "active", "title": "佐賀市 佐賀城・鯱の門「二階堂サキ&鍋島直正像」", "work": "ゾンビランドサガ"}
{"address": "佐賀県佐賀市栄町", "character": "ゆうぎり", "city": "佐賀市", "first_seen": "2026-07-04T11:38:12Z", "id": "zls-3", "landmark": "Cygames佐賀ビル", "last_updated": "2026-07-04T11:38:12Z", "lat": 33.2648834, "lng": 130.3021248, "map_mid": "1FPmlP9AkHBbCvQEnfLMQAkM-72-SANOO", "prefecture": "佐賀県", "source_url": "https://anime-zls.hamutane.com/manhole/zls-manhole/", "status": "active", "title": "佐賀市 Cygames佐賀ビル「ゆうぎり&Cygames佐賀ビル」", "work": "ゾンビランドサガ"}
{"address": "佐賀県佐賀市呉服元町", "character": "星川リリィ", "city": "佐賀市", "first_seen": "2026-07-04T11:38:12Z", "id": "zls-4", "landmark": "656（むつごろう）広場", "last_updated": "2026-07-04T11:38:12Z", "lat": 33.25378, "lng": 130.3039289, "map_mid": "1FPmlP9AkHBbCvQEnfLMQAkM-72-SANOO", "prefecture": "佐賀県", "source_url": "https://anime-zls.hamutane.com/manhole/zls-manhole/", "status": "active", "title": "佐賀市 656（むつごろう）広場「星川リリィ&656（むつごろう）広場」", "work": "ゾンビランドサガ"}
{"address": "佐賀県唐津市海岸通", "character": "源さくら", "city": "唐津市", "first_seen": "2026-07-04T11:38:12Z", "id": "zls-5", "landmark": "民俗資料館緑地", "last_updated": "2026-07-04T11:38:12Z", "lat": 33.4704143, "lng": 129.9534797, "map_mid": "1FPmlP9AkHBbCvQEnfLMQAkM-72-SANOO", "prefecture": "佐賀県", "source_url": "https://anime-zls.hamutane.com/manhole/zls-manhole/", "status": "active", "title": "唐津市 民俗資料館緑地「源さくら&唐津市歴史民俗資料館」", "work": "ゾンビランドサガ"}
{"address": "佐賀県唐津市大名小路", "character": "山田たえ", "city": "唐津市", "first_seen": "2026-07-04T11:38:12Z", "id": "zls-6", "landmark": "大名小路児童公園", "last_updated": "2026-07-04T11:38:12Z", "lat": 33.4500591, "lng": 129.9706254, "map_mid": "1FPmlP9AkHBbCvQEnfLMQAkM-72-SANOO", "prefecture": "佐賀県", "source_url": "https://anime-zls.hamutane.com/manhole/zls-manhole/", "status": "active", "title": "唐津市 大名小路児童公園「山田たえ&唐津くんち」", "work": "ゾンビランドサガ"}
{"address": "佐賀県鳥栖市本鳥栖町", "character": "水野愛", "city": "鳥栖市", "first_seen": "2026-07-04T11:38:12Z", "id": "zls-7", "landmark": "駅前不動産スタジアム", "last_updated": "2026-07-04T11:38:12Z", "lat": 33.3735933, "lng": 130.5205502, "map_mid": "1FPmlP9AkHBbCvQEnfLMQAkM-72-SANOO", "prefecture": "佐賀県", "source_url": "https://anime-zls.hamutane.com/manhole/zls-manhole/", "status": "active", "title": "鳥栖市 駅前不動産スタジアム「水野愛&駅前不動産スタジアム」", "work": "ゾンビランドサガ"}
{"address": "佐賀県鳥栖市原古賀町", "character": "星川リリィ", "city": "鳥栖市", "first_seen": "2026-07-04T11:38:12Z", "id": "zls-8", "landmark": "新鳥栖駅", "last_updated": "2026-07-04T11:38:12Z", "lat": 33.3704993, "lng": 130.4902522, "map_mid": "1FPmlP9AkHBbCvQEnfLMQAkM-72-SANOO", "prefecture": "佐賀県", "source_url": "https://anime-zls.hamutane.com/manhole/zls-manhole/", "status": "active", "title": "鳥栖市 新鳥栖駅「星川リリィ&新鳥栖駅・とっとちゃん」", "work": "ゾンビランドサガ"}
{"address": "佐賀県伊万里市大坪町甲", "character": "二階堂サキ", "city": "伊万里市", "first_seen": "2026-07-04T11:38:12Z", "id": "zls-9", "landmark": "ドライブイン鳥", "last_updated": "2026-07-04T11:38:12Z", "lat": 33.2870863, "lng": 129.9021125, "map_mid": "1FPmlP9AkHBbCvQEnfLMQAkM-72-SANOO", "prefecture": "佐賀県", "source_url": "https://anime-zls.hamutane.com/manhole/zls-manhole/", "status": "active", "title": "伊万里市 ドライブイン鳥「二階堂サキ&ドライブイン鳥のコッコ君」", "work": "ゾンビランドサガ"}
{"address": "佐賀県伊万里市新天町", "character": "紺野純子", "city": "伊万里市", "first_seen": "2026-07-04T11:38:12Z", "id": "zls-10", "landmark": "JR伊万里駅", "last_updated": "2026-07-04T11:38:12Z", "lat": 33.2719837, "lng": 129.8767324, "map_mid": "1FPmlP9AkHBbCvQEnfLMQAkM-72-SANOO", "prefecture": "佐賀県", "source_url": "https://anime-zls.hamutane.com/manhole/zls-manhole/", "status": "active", "title": "伊万里市 JR伊万里駅「紺野純子&伊万里湾大花火」", "work": "ゾンビランドサガ"}
{"address": "佐賀県鹿島市古枝", "character": "ゆうぎり", "city": "鹿島市", "first_seen": "2026-07-04T11:38:12Z", "id": "zls-11", "landmark": "祐徳稲荷神社", "last_updated": "2026-07-04T11:38:12Z", "lat": 33.0741851, "lng": 130.1081901, "map_mid": "1FPmlP9AkHBbCvQEnfLMQAkM-72-SANOO", "prefecture": "佐賀県", "source_url": "https://anime-zls.hamutane.com/manhole/zls-manhole/", "status": "active", "title": "鹿嶋市 祐徳稲荷神社「ゆうぎり&祐徳稲荷神社」", "work": "ゾンビランドサガ"}
{"address": "佐賀県鹿島市大字音成", "character": "山田たえ", "city": "鹿島市", "first_seen": "2026-07-04T11:38:12Z", "id": "zls-12", "landmark": "鹿島市干潟交流館", "last_updated": "2026-07-04T11:38:12Z", "lat": 33.075725, "lng": 130.1459529, "map_mid": "1FPmlP9AkHBbCvQEnfLMQAkM-72-SANOO", "prefecture": "佐賀県", "source_url": "https://anime-zls.hamutane.com/manhole/zls-manhole/", "status": "active", "title": "鹿嶋市 鹿島市干潟交流館「山田たえ&鹿島ガタリンピック・ワラスボ・ムツゴロウ」", "work": "ゾンビランドサガ"}
{"address": "佐賀県嬉野市嬉野町大字下野", "character": "水野愛", "city": "嬉野市", "first_seen": "2026-07-04T11:38:12Z", "id": "zls-13", "landmark": "嬉野温泉公園", "last_updated": "2026-07-04T11:38:12Z", "lat": 33.0964127, "lng": 129.9864304, "map_mid": "1FPmlP9AkHBbCvQEnfLMQAkM-72-SANOO", "prefecture": "佐賀県", "source_url": "https://anime-zls.hamutane.com/manhole/zls-manhole/", "status": "active", "title": "嬉野市 嬉野温泉公園「水野愛&嬉野茶畑」", "work": "ゾンビランドサガ"}
{"address": "佐賀県嬉野市嬉野町大字下宿", "character": "紺野純子", "city": "嬉野市", "first_seen": "2026-07-04T11:38:12Z", "id": "zls-14", "landmark": "新湯広場", "last_updated": "2026-07-04T11:38:12Z", "lat": 33.0967004, "lng": 129.9869938, "map_mid": "1FPmlP9AkHBbCvQEnfLMQAkM-72-SANOO", "prefecture": "佐賀県", "source_url": "https://anime-zls.hamutane.com/manhole/zls-manhole/", "status": "active", "title": "嬉野市 新湯広場「紺野純子&シーボルトの湯」", "work": "ゾンビランドサガ"}
{"address": "佐賀県有田町赤坂", "character": "源さくら", "city": "有田町", "first_seen": "2026-07-04T11:38:12Z", "id": "zls-15", "landmark": "アリタセラ", "last_updated": "2026-07-04T11:38:12Z", "lat": 33.1934308, "lng": 129.8751451, "map_mid": "1FPmlP9AkHBbCvQEnfLMQAkM-72-SANOO", "prefecture": "佐賀県", "source_url": "https://anime-zls.hamutane.com/manhole/zls-manhole/", "status": "active", "title": "有田町 アリタセラ「源さくら&有田焼」", "work": "ゾンビランドサガ"}
{"address": "佐賀県多久市多久町", "character": "二階堂サキ", "city": "多久市", "first_seen": "2026-07-04T11:38:12Z", "id": "zls-16", "landmark": "多久聖廟", "last_updated": "2026-07-04T11:38:12Z", "lat": 33.2589408, "lng": 130.0975107, "map_mid": "1FPmlP9AkHBbCvQEnfLMQAkM-72-SANOO", "prefecture": "佐賀県", "source_url": "https://anime-zls.hamutane.com/manhole/zls-manhole/", "status": "active", "title": "多久市 多久聖廟「二階堂サキ&孔子像」", "work": "ゾンビランドサガ"}
{"address": "佐賀県白石町大字福富下分", "character": "水野愛", "city": "白石町", "first_seen": "2026-07-04T11:38:12Z", "id": "zls-17", "landmark": "道の駅しろいし", "last_updated": "2026-07-04T11:38:12Z", "lat": 33.1770719, "lng": 130.19588, "map_mid": "1FPmlP9AkHBbCvQEnfLMQAkM-72-SANOO", "prefecture": "佐賀県", "source_url": "https://anime-zls.hamutane.com/manhole/zls-manhole/", "status": "active", "title": "白石町 道の駅しろいし「水野愛&玉ねぎ・れんこん」", "work": "ゾンビランドサガ"}
{"address": "佐賀県小城市小城町", "character": "紺野純子", "city": "小城市", "first_seen": "2026-07-04T11:38:12Z", "id": "zls-18", "landmark": "小城公園", "last_updated": "2026-07-04T11:38:12Z", "lat": 33.2882112, "lng": 130.1969237, "map_mid": "1FPmlP9AkHBbCvQEnfLMQAkM-72-SANOO", "prefecture": "佐賀県", "source_url": "https://anime-zls.hamutane.com/manhole/zls-manhole/", "status": "active", "title": "小城市 小城公園「紺野純子&桜・小城羊羹」", "work": "ゾンビランドサガ"}
{"address": "佐賀県神埼市神埼町的", "character": "ゆうぎり", "city": "神埼市", "first_seen": "2026-07-04T11:38:12Z", "id": "zls-19", "landmark": "仁比山温泉 もみじの湯", "last_updated": "2026-07-04T11:38:12Z", "lat": 33.35484, "lng": 130.3637267, "map_mid": "1FPmlP9AkHBbCvQEnfLMQAkM-72-SANOO", "prefecture": "佐賀県", "source_url": "https://anime-zls.hamutane.com/manhole/zls-manhole/", "status": "active", "title": "神埼市 仁比山温泉 もみじの湯「ゆうぎり&九年庵」", "work": "ゾンビランドサガ"}
{"address": "佐賀県武雄市若木町大字川古", "character": "星川リリィ", "city": "武雄市", "first_seen": "2026-07-04T11:38:12Z", "id": "zls-20", "landmark": "川古の大楠", "last_updated": "2026-07-04T11:38:12Z", "lat": 33.2516916, "lng": 129.9934955, "map_mid": "1FPmlP9AkHBbCvQEnfLMQAkM-72-SANOO", "prefecture": "佐賀県", "source_url": "https://anime-zls.hamutane.com/manhole/zls-manhole/", "status": "active", "title": "武雄市 川古の大楠「星川リリィ&川古の大楠」", "work": "ゾンビランドサガ"}
{"address": "佐賀県吉野ヶ里町吉田", "character": "山田たえ", "city": "吉野ヶ里町", "first_seen": "2026-07-04T11:38:12Z", "id": "zls-21", "landmark": "吉野ヶ里町公園駅コミュニティホール", "last_updated": "2026-07-04T11:38:12Z", "lat": 33.3252372, "lng": 130.3986868, "map_mid": "1FPmlP9AkHBbCvQEnfLMQAkM-72-SANOO", "prefecture": "佐賀県", "source_url": "https://anime-zls.hamutane.com/manhole/zls-manhole/", "status": "active", "title": "吉野ヶ里町 吉野ヶ里町公園駅コミュニティホール「山田たえ&吉野ヶ里歴史公園」", "work": "ゾンビランドサガ"}
{"address": "佐賀県太良町大字多良", "character": "源さくら", "city": "太良町", "first_seen": "2026-07-04T11:38:12Z", "id": "zls-22", "landmark": "大魚神社の海中鳥居", "last_updated": "2026-07-04T11:38:12Z", "lat": 33.0309762, "lng": 130.1774688, "map_mid": "1FPmlP9AkHBbCvQEnfLMQAkM-72-SANOO", "prefecture": "佐賀県", "source_url": "https://anime-zls.hamutane.com/manhole/zls-manhole/", "status": "active", "title": "太良町 大魚神社の海中鳥居（源さくら×大魚神社の海中鳥居）", "work": "ゾンビランドサガ"}
{"address": "佐賀県太良町大字大浦甲", "character": "巽幸太郎・ロメロ", "city": "太良町", "first_seen": "2026-07-04T11:38:12Z", "id": "zls-23", "landmark": "竹崎城址展望台公園", "last_updated": "2026-07-04T11:38:12Z", "lat": 32.9568715, "lng": 130.2235259, "map_mid": "1FPmlP9AkHBbCvQEnfLMQAkM-72-SANOO", "prefecture": "佐賀県", "source_url": "https://anime-zls.hamutane.com/manhole/zls-manhole/", "status": "active", "title": "太良町 竹崎城址展望台公園（巽幸太郎・ロメロ×竹崎カニ・有明海・竹崎城址）", "work": "ゾンビランドサガ"}
{"address": "佐賀県基山町大字宮浦", "character": "二階堂サキ", "city": "基山町", "first_seen": "2026-07-04T11:38:12Z", "id": "zls-24", "landmark": "基山モール商店街", "last_updated": "2026-07-04T11:38:12Z", "lat": 33.420823, "lng": 130.5305272, "map_mid": "1FPmlP9AkHBbCvQEnfLMQAkM-72-SANOO", "prefecture": "佐賀県", "source_url": "https://anime-zls.hamutane.com/manhole/zls-manhole/", "status": "active", "title": "基山町 基山モール商店街（二階堂サキ×基山草スキー）", "work": "ゾンビランドサガ"}
{"address": "佐賀県大町町大字福母", "character": "水野愛", "city": "大町町", "first_seen": "2026-07-04T11:38:12Z", "id": "zls-25", "landmark": "おおまち情報プラザ", "last_updated": "2026-07-04T11:38:12Z", "lat": 33.2126404, "lng": 130.106473, "map_mid": "1FPmlP9AkHBbCvQEnfLMQAkM-72-SANOO", "prefecture": "佐賀県", "source_url": "https://anime-zls.hamutane.com/manhole/zls-manhole/", "status": "active", "title": "大町町 おおまち情報プラザ（水野愛×聖岳展望所 ハート型の手水鉢）", "work": "ゾンビランドサガ"}
{"address": "佐賀県上峰町大字前牟田", "character": "紺野純子", "city": "上峰町", "first_seen": "2026-07-04T11:38:12Z", "id": "zls-26", "landmark": "上峰中央公園", "last_updated": "2026-07-04T11:38:12Z", "lat": 33.3114003, "lng": 130.4243525, "map_mid": "1FPmlP9AkHBbCvQEnfLMQAkM-72-SANOO", "prefecture": "佐賀県", "source_url": "https://anime-zls.hamutane.com/manhole/zls-manhole/", "status": "active", "title": "上峰町 上峰中央公園（紺野純子×椿）", "work": "ゾンビランドサガ"}
{"address": "佐賀県みやき町大字白壁", "character": "星川リリィ", "city": "みやき町", "first_seen": "2026-07-04T11:38:12Z", "id": "zls-27", "landmark": "千栗土居公園", "last_updated": "2026-07-04T11:38:12Z", "lat": 33.3256167, "lng": 130.4757272, "map_mid": "1FPmlP9AkHBbCvQEnfLMQAkM-72-SANOO", "prefecture": "佐賀県", "source_url": "https://anime-zls.hamutane.com/manhole/zls-manhole/", "status": "active", "title": "みやき町 千栗土居公園（星川リリィ×蓮池）", "work": "ゾンビランドサガ"}
{"address": "佐賀県玄海町大字石田", "character": "ゆうぎり", "city": "玄海町", "first_seen": "2026-07-04T11:38:12Z", "id": "zls-28", "landmark": "玄海海上温泉パレア", "last_updated": "2026-07-04T11:38:12Z", "lat": 33.4717156, "lng": 129.8485988, "map_mid": "1FPmlP9AkHBbCvQEnfLMQAkM-72-SANOO", "prefecture": "佐賀県", "source_url": "https://anime-zls.hamutane.com/manhole/zls-manhole/", "status": "active", "title": "玄海町 玄海海上温泉パレア（ゆうぎり×浜野浦の棚田の夕陽）", "work": "ゾンビランドサガ"}
{"address": "佐賀県江北町大字佐留志", "character": "山田たえ", "city": "江北町", "first_seen": "2026-07-04T11:38:12Z", "id": "zls-29", "landmark": "みんなの公園", "last_updated": "2026-07-04T11:38:12Z", "lat": 33.2159394, "lng": 130.1624487, "map_mid": "1FPmlP9AkHBbCvQEnfLMQAkM-72-SANOO", "prefecture": "佐賀県", "source_url": "https://anime-zls.hamutane.com/manhole/zls-manhole/", "status": "active", "title": "江北町 みんなの公園（山田たえ×みんなの公園）", "work": "ゾンビランドサガ"}
{"address": "佐賀県唐津市呼子町呼子", "character": "巽幸太郎・ロメロ", "city": "唐津市", "first_seen": "2026-07-04T11:38:12Z", "id": "zls-30", "landmark": "呼子いこいの広場", "last_updated": "2026-07-04T11:38:12Z", "lat": 33.5377327, "lng": 129.8952983, "map_mid": "1FPmlP9AkHBbCvQEnfLMQAkM-72-SANOO", "prefecture": "佐賀県", "source_url": "https://anime-zls.hamutane.com/manhole/zls-manhole/", "status": "active", "title": "唐津市 呼子いこいの広場（巽幸太郎・ロメロ×呼子のイカ・玄界灘・七ツ釜）", "work": "ゾンビランドサガ"}
{"address": "佐賀県佐賀市日の出二丁目", "character": "ゾンビランドサガ ロゴ", "city": "佐賀市", "first_seen": "2026-07-04T11:38:12Z", "id": "zls-31", "landmark": "SAGAアリーナ", "last_updated": "2026-07-04T11:38:12Z", "lat": 33.2767926, "lng": 130.2928607, "map_mid": "1FPmlP9AkHBbCvQEnfLMQAkM-72-SANOO", "prefecture": "佐賀県", "source_url": "https://anime-zls.hamutane.com/manhole/zls-manhole/", "status": "active", "title": "佐賀市 SAGAアリーナ（ゾンビランドサガ ロゴ）", "work": "ゾンビランドサガ"}
{"address": "佐賀県佐賀市若宮一丁目", "character": "源さくら", "city": "佐賀市", "first_seen": "2026-07-04T11:38:12Z", "id": "zls-32", "landmark": "SAGAアリーナ近く", "last_updated": "2026-07-04T11:38:12Z", "lat": 33.2735241, "lng": 130.2941132, "map_mid": "1FPmlP9AkHBbCvQEnfLMQAkM-72-SANOO", "prefecture": "佐賀県", "source_url": "https://anime-zls.hamutane.com/manhole/zls-manhole/", "status": "active", "title": "佐賀市 SAGAアリーナ近く（源さくら&SAGAアリーナ）", "work": "ゾンビランドサガ"}
{"address": "佐賀県佐賀市駅前中央一丁目", "character": "ポルカ", "city": "佐賀市", "first_seen": "2026-07-04T11:38:33Z", "id": "romasaga-1", "landmark": "", "last_updated": "2026-07-04T11:38:33Z", "lat": 33.263169, "lng": 130.2980631, "map_mid": "1aN1RAKyja5avTteXdlrUwIEzuZ69z8g", "prefecture": "佐賀県", "source_url": "https://romasaga.info/monument/manhole", "status": "active", "title": "マンホール（ポルカ）", "work": "ロマンシング サガ"}
{"address": "佐賀県佐賀市唐人一丁目", "character": "アルベルト", "city": "佐賀市", "first_seen": "2026-07-04T11:38:33Z", "id": "romasaga-2", "landmark": "", "last_updated": "2026-07-04T11:38:33Z", "lat": 33.2588025, "lng": 130.2991494, "map_mid": "1aN1RAKyja5avTteXdlrUwIEzuZ69z8g", "prefecture": "佐賀県", "source_url": "https://romasaga.info/monument/manhole", "status": "active", "title": "マンホール（アルベルト）", "work": "ロマンシング サガ"}
{"address": "佐賀県佐賀市白山二丁目", "character": "ウルピナ", "city": "佐賀市", "first_seen": "2026-07-04T11:38:33Z", "id": "romasaga-3", "landmark": "", "last_updated": "2026-07-04T11:38:33Z", "lat": 33.2550784, "lng": 130.2998361, "map_mid": "1aN1RAKyja5avTteXdlrUwIEzuZ69z8g", "prefecture": "佐賀県", "source_url": "https://romasaga.info/monument/manhole", "status": "active", "title": "マンホール（ウルピナ）", "work": "ロマンシング サガ"}
{"address": "佐賀県佐賀市呉服元町", "character": "ギュスターヴ", "city": "佐賀市", "first_seen": "2026-07-04T11:38:33Z", "id": "romasaga-4", "landmark": "", "last_updated": "2026-07-04T11:38:33Z", "lat": 33.2547969, "lng": 130.3038212, "map_mid": "1aN1RAKyja5avTteXdlrUwIEzuZ69z8g", "prefecture": "佐賀県", "source_url": "https://romasaga.info/monument/manhole", "status": "active", "title": "マンホール（ギュスターヴ）", "work": "ロマンシング サガ"}
{"address": "佐賀県佐賀市呉服元町", "character": "カタリナ", "city": "佐賀市", "first_seen": "2026-07-04T11:38:33Z", "id": "romasaga-5", "landmark": "", "last_updated": "2026-07-04T11:38:33Z", "lat": 33.2532285, "lng": 130.3039734, "map_mid": "1aN1RAKyja5avTteXdlrUwIEzuZ69z8g", "prefecture": "佐賀県", "source_url": "https://romasaga.info/monument/manhole", "status": "active", "title": "マンホール（カタリナ）", "work": "ロマンシング サガ"}
{"address": "佐賀県佐賀市松原一丁目", "character": "最終皇帝", "city": "佐賀市", "first_seen": "2026-07-04T11:38:33Z", "id": "romasaga-6", "landmark": "", "last_updated": "2026-07-04T11:38:33Z", "lat": 33.2523405, "lng": 130.3002109, "map_mid": "1aN1RAKyja5avTteXdlrUwIEzuZ69z8g", "prefecture": "佐賀県", "source_url": "https://romasaga.info/monument/manhole", "status": "active", "title": "マンホール（最終皇帝）", "work": "ロマンシング サガ"}
{"address": "佐賀県佐賀市城内一丁目", "character": "アセルス", "city": "佐賀市", "first_seen": "2026-07-04T11:38:33Z", "id": "romasaga-7", "landmark": "", "last_updated": "2026-07-04T11:38:33Z", "lat": 33.2461863, "lng": 130.3011544, "map_mid": "1aN1RAKyja5avTteXdlrUwIEzuZ69z8g", "prefecture": "佐賀県", "source_url": "https://romasaga.info/monument/manhole", "status": "active", "title": "マンホール（アセルス）", "work": "ロマンシング サガ"}
{"address": "佐賀県武雄市武雄町大字富岡", "character": "エミリア", "city": "武雄市", "first_seen": "2026-07-04T11:38:33Z", "id": "romasaga-8", "landmark": "", "last_updated": "2026-07-04T11:38:33Z", "lat": 33.1970875, "lng": 130.0238348, "map_mid": "1aN1RAKyja5avTteXdlrUwIEzuZ69z8g", "prefecture": "佐賀県", "source_url": "https://romasaga.info/monument/manhole", "status": "active", "title": "マンホール（エミリア）", "work": "ロマンシング サガ"}
{"address": "佐賀県武雄市武雄町大字富岡", "character": "T260G", "city": "武雄市", "first_seen": "2026-07-04T11:38:33Z", "id": "romasaga-9", "landmark": "", "last_updated": "2026-07-04T11:38:33Z", "lat": 33.1938504, "lng": 130.017434, "map_mid": "1aN1RAKyja5avTteXdlrUwIEzuZ69z8g", "prefecture": "佐賀県", "source_url": "https://romasaga.info/monument/manhole", "status": "active", "title": "マンホール（T260G）", "work": "ロマンシング サガ"}
{"address": "佐賀県武雄市武雄町大字昭和", "character": "アセルス", "city": "武雄市", "first_seen": "2026-07-04T11:38:33Z", "id": "romasaga-10", "landmark": "", "last_updated": "2026-07-04T11:38:33Z", "lat": 33.1945294, "lng": 130.0209611, "map_mid": "1aN1RAKyja5avTteXdlrUwIEzuZ69z8g", "prefecture": "佐賀県", "source_url": "https://romasaga.info/monument/manhole", "status": "active", "title": "マンホール（アセルス）", "work": "ロマンシング サガ"}
{"address": "佐賀県武雄市武雄町大字昭和", "character": "レッド", "city": "武雄市", "first_seen": "2026-07-04T11:38:33Z", "id": "romasaga-11", "landmark": "", "last_updated": "2026-07-04T11:38:33Z", "lat": 33.1947087, "lng": 130.0248144, "map_mid": "1aN1RAKyja5avTteXdlrUwIEzuZ69z8g", "prefecture": "佐賀県", "source_url": "https://romasaga.info/monument/manhole", "status": "active", "title": "マンホール（レッド）", "work": "ロマンシング サガ"}
{"address": "佐賀県武雄市武雄町大字昭和", "character": "クーン", "city": "武雄市", "first_seen": "2026-07-04T11:38:33Z", "id": "romasaga-12", "landmark": "", "last_updated": "2026-07-04T11:38:33Z", "lat": 33.1962035, "lng": 130.0310455, "map_mid": "1aN1RAKyja5avTteXdlrUwIEzuZ69z8g", "prefecture": "佐賀県", "source_url": "https://romasaga.info/monument/manhole", "status": "active", "title": "マンホール（クーン）", "work": "ロマンシング サガ"}
{"address": "佐賀県佐賀市富士町大字古湯", "character": "ミーティア", "city": "佐賀市", "first_seen": "2026-07-04T11:38:33Z", "id": "romasaga-13", "landmark": "", "last_updated": "2026-07-04T11:38:33Z", "lat": 33.374285, "lng": 130.2076267, "map_mid": "1aN1RAKyja5avTteXdlrUwIEzuZ69z8g", "prefecture": "佐賀県", "source_url": "https://romasaga.info/monument/manhole", "status": "active", "title": "マンホール（ミーティア）", "work": "ロマンシング サガ"}
{"address": "佐賀県佐賀市富士町大字古湯", "character": "コーデリア", "city": "佐賀市", "first_seen": "2026-07-04T11:38:33Z", "id": "romasaga-14", "landmark": "", "last_updated": "2026-07-04T11:38:33Z", "lat": 33.3734666, "lng": 130.2084314, "map_mid": "1aN1RAKyja5avTteXdlrUwIEzuZ69z8g", "prefecture": "佐賀県", "source_url": "https://romasaga.info/monument/manhole", "status": "active", "title": "マンホール（コーデリア）", "work": "ロマンシング サガ"}
{"address": "佐賀県佐賀市富士町大字古湯", "character": "ジニー・ナイツ", "city": "佐賀市", "first_seen": "2026-07-04T11:38:33Z", "id": "romasaga-15", "landmark": "", "last_updated": "2026-07-04T11:38:33Z", "lat": 33.3721899, "lng": 130.2079744, "map_mid": "1aN1RAKyja5avTteXdlrUwIEzuZ69z8g", "prefecture": "佐賀県", "source_url": "https://romasaga.info/monument/manhole", "status": "active", "title": "マンホール（ジニー・ナイツ）", "work": "ロマンシング サガ"}
{"address": "佐賀県佐賀市富士町大字古湯", "character": "グスタフ", "city": "佐賀市", "first_seen": "2026-07-04T11:38:33Z", "id": "romasaga-16", "landmark": "", "last_updated": "2026-07-04T11:38:33Z", "lat": 33.3714437, "lng": 130.2065619, "map_mid": "1aN1RAKyja5avTteXdlrUwIEzuZ69z8g", "prefecture": "佐賀県", "source_url": "https://romasaga.info/monument/manhole", "status": "active", "title": "マンホール（グスタフ）", "work": "ロマンシング サガ"}
{"address": "佐賀県佐賀市富士町大字古湯", "character": "ウィル・ナイツ", "city": "佐賀市", "first_seen": "2026-07-04T11:38:33Z", "id": "romasaga-17", "landmark": "", "last_updated": "2026-07-04T11:38:33Z", "lat": 33.3692633, "lng": 130.2059457, "map_mid": "1aN1RAKyja5avTteXdlrUwIEzuZ69z8g", "prefecture": "佐賀県", "source_url": "https://romasaga.info/monument/manhole", "status": "active", "title": "マンホール（ウィル・ナイツ）", "work": "ロマンシング サガ"}
{"address": "佐賀県唐津市新興町", "character": "ロックブーケ", "city": "唐津市", "first_seen": "2026-07-04T11:38:33Z", "id": "romasaga-18", "landmark": "", "last_updated": "2026-07-04T11:38:33Z", "lat": 33.4449246, "lng": 129.9677273, "map_mid": "1aN1RAKyja5avTteXdlrUwIEzuZ69z8g", "prefecture": "佐賀県", "source_url": "https://romasaga.info/monument/manhole", "status": "active", "title": "マンホール（ロックブーケ）", "work": "ロマンシング サガ"}
{"address": "佐賀県唐津市京町", "character": "アルベルト", "city": "唐津市", "first_seen": "2026-07-04T11:38:33Z", "id": "romasaga-19", "landmark": "", "last_updated": "2026-07-04T11:38:33Z", "lat": 33.4470173, "lng": 129.9699306, "map_mid": "1aN1RAKyja5avTteXdlrUwIEzuZ69z8g", "prefecture": "佐賀県", "source_url": "https://romasaga.info/monument/manhole", "status": "active", "title": "マンホール（アルベルト）", "work": "ロマンシング サガ"}
{"address": "佐賀県唐津市魚屋町", "character": "かみ", "city": "唐津市", "first_seen": "2026-07-04T11:38:33Z", "id": "romasaga-20", "landmark": "", "last_updated": "2026-07-04T11:38:33Z", "lat": 33.4476529, "lng": 129.972189, "map_mid": "1aN1RAKyja5avTteXdlrUwIEzuZ69z8g", "prefecture": "佐賀県", "source_url": "https://romasaga.info/monument/manhole", "status": "active", "title": "マンホール（かみ）", "work": "ロマンシング サガ"}
{"address": "佐賀県唐津市東城内", "character": "ジェラール", "city": "唐津市", "first_seen": "2026-07-04T11:38:33Z", "id": "romasaga-21", "landmark": "", "last_updated": "2026-07-04T11:38:33Z", "lat": 33.452939, "lng": 129.977632, "map_mid": "1aN1RAKyja5avTteXdlrUwIEzuZ69z8g", "prefecture": "佐賀県", "source_url": "https://romasaga.info/monument/manhole", "status": "active", "title": "マンホール（ジェラール）", "work": "ロマンシング サガ"}
{"address": "佐賀県唐津市北城内", "character": "せんせい", "city": "唐津市", "first_seen": "2026-07-04T11:38:33Z", "id": "romasaga-22", "landmark": "", "last_updated": "2026-07-04T11:38:33Z", "lat": 33.454695, "lng": 129.9729857, "map_mid": "1aN1RAKyja5avTteXdlrUwIEzuZ69z8g", "prefecture": "佐賀県", "source_url": "https://romasaga.info/monument/manhole", "status": "active", "title": "マンホール（せんせい）", "work": "ロマンシング サガ"}
{"address": "佐賀県唐津市大名小路", "character": "ファイアブリンガー", "city": "唐津市", "first_seen": "2026-07-04T11:38:33Z", "id": "romasaga-23", "landmark": "", "last_updated": "2026-07-04T11:38:33Z", "lat": 33.4490853, "lng": 129.9698629, "map_mid": "1aN1RAKyja5avTteXdlrUwIEzuZ69z8g", "prefecture": "佐賀県", "source_url": "https://romasaga.info/monument/manhole", "status": "active", "title": "マンホール（ファイアブリンガー）", "work": "ロマンシング サガ"}
{"address": "佐賀県唐津市呉服町", "character": "詩人", "city": "唐津市", "first_seen": "2026-07-04T11:38:33Z", "id": "romasaga-24", "landmark": "", "last_updated": "2026-07-04T11:38:33Z", "lat": 33.448013, "lng": 129.969034, "map_mid": "1aN1RAKyja5avTteXdlrUwIEzuZ69z8g", "prefecture": "佐賀県", "source_url": "https://romasaga.info/monument/manhole", "status": "active", "title": "マンホール（詩人）", "work": "ロマンシング サガ"}
{"address": "佐賀県佐賀市日の出二丁目", "character": "クローディア", "city": "佐賀市", "first_seen": "2026-07-04T11:38:33Z", "id": "romasaga-25", "landmark": "", "last_updated": "2026-07-04T11:38:33Z", "lat": 33.2774637, "lng": 130.2928883, "map_mid": "1aN1RAKyja5avTteXdlrUwIEzuZ69z8g", "prefecture": "佐賀県", "source_url": "https://romasaga.info/monument/manhole", "status": "active", "title": "マンホール（クローディア）", "work": "ロマンシング サガ"}
{"address": "佐賀県佐賀市若宮一丁目", "character": "ビューネイ", "city": "佐賀市", "first_seen": "2026-07-04T11:38:33Z", "id": "romasaga-26", "landmark": "", "last_updated": "2026-07-04T11:38:33Z", "lat": 33.2739256, "lng": 130.2940266, "map_mid": "1aN1RAKyja5avTteXdlrUwIEzuZ69z8g", "prefecture": "佐賀県", "source_url": "https://romasaga.info/monument/manhole", "status": "active", "title": "マンホール（ビューネイ）", "work": "ロマンシング サガ"}
{"address": "佐賀県佐賀市神野東三丁目", "character": "イスカンダール", "city": "佐賀市", "first_seen": "2026-07-04T11:38:33Z", "id": "romasaga-27", "landmark": "", "last_updated": "2026-07-04T11:38:33Z", "lat": 33.2711091, "lng": 130.2951329, "map_mid": "1aN1RAKyja5avTteXdlrUwIEzuZ69z8g", "prefecture": "佐賀県", "source_url": "https://romasaga.info/monument/manhole", "status": "active", "title": "マンホール（イスカンダール）", "work": "ロマンシング サガ"}
{"address": "佐賀県佐賀市川副町大字犬井道", "character": "せんせい", "city": "佐賀市", "first_seen": "2026-07-04T11:38:33Z", "id": "romasaga-28", "landmark": "", "last_updated": "2026-07-04T11:38:33Z", "lat": 33.1538184, "lng": 130.3024409, "map_mid": "1aN1RAKyja5avTteXdlrUwIEzuZ69z8g", "prefecture": "佐賀県", "source_url": "https://romasaga.info/monument/manhole", "status": "active", "title": "マンホール（せんせい）", "work": "ロマンシング サガ"}
{"address": "佐賀県吉野ヶ里町吉田", "character": "メカ", "city": "吉野ヶ里町", "first_seen": "2026-07-04T11:38:33Z", "id": "romasaga-29", "landmark": "", "last_updated": "2026-07-04T11:38:33Z", "lat": 33.3217887, "lng": 130.3999933, "map_mid": "1aN1RAKyja5avTteXdlrUwIEzuZ69z8g", "prefecture": "佐賀県", "source_url": "https://romasaga.info/monument/manhole", "status": "active", "title": "マンホール（メカ）", "work": "ロマンシング サガ"}
{"address": "佐賀県太良町大字大浦甲", "character": "コーデリア", "city": "太良町", "first_seen": "2026-07-04T11:38:33Z", "id": "romasaga-30", "landmark": "", "last_updated": "2026-07-04T11:38:33Z", "lat": 32.955407, "lng": 130.220234, "map_mid": "1aN1RAKyja5avTteXdlrUwIEzuZ69z8g", "prefecture": "佐賀県", "source_url": "https://romasaga.info/monument/manhole", "status": "active", "title": "マンホール（コーデリア）", "work": "ロマンシング サガ"}
{"address": "佐賀県有田町泉山一丁目", "character": "サラ", "city": "有田町", "first_seen": "2026-07-04T11:38:33Z", "id": "romasaga-31", "landmark": "", "last_updated": "2026-07-04T11:38:33Z", "lat": 33.19317, "lng": 129.90517, "map_mid": "1aN1RAKyja5avTteXdlrUwIEzuZ69z8g", "prefecture": "佐賀県", "source_url": "https://romasaga.info/monument/manhole", "status": "active", "title": "マンホール（サラ）", "work": "ロマンシング サガ"}
{"address": "佐賀県伊万里市新天町", "character": "御堂綱紀", "city": "伊万里市", "first_seen": "2026-07-04T11:38:33Z", "id": "romasaga-32", "landmark": "", "last_updated": "2026-07-04T11:38:33Z", "lat": 33.27233, "lng": 129.87658, "map_mid": "1aN1RAKyja5avTteXdlrUwIEzuZ69z8g", "prefecture": "佐賀県", "source_url": "https://romasaga.info/monument/manhole", "status": "active", "title": "マンホール（御堂綱紀）", "work": "ロマンシング サガ"}
{"address": "長崎県長崎市中里町", "character": "真波山岳", "city": "長崎市", "first_seen": "2026-07-04T11:38:53Z", "id": "yowapeda-1", "landmark": "中里ふれあい公園", "last_updated": "2026-07-04T11:38:53Z", "lat": 32.8030872, "lng": 129.9643877, "map_mid": "1WT8bXEgjX4QlIzDuX6LIgrFfZ9QCwDxb", "prefecture": "長崎県", "source_url": "https://hamutane.com/manhole/yowapeda-manhole/", "status": "active", "title": "中里ふれあい公園（真波山岳）", "work": "弱虫ペダル"}
{"address": "長崎県長崎市松が枝町", "character": "小野田坂道", "city": "長崎市", "first_seen": "2026-07-04T11:38:53Z", "id": "yowapeda-2", "landmark": "松が枝国際ターミナル", "last_updated": "2026-07-04T11:38:53Z", "lat": 32.736552, "lng": 129.8686899, "map_mid": "1WT8bXEgjX4QlIzDuX6LIgrFfZ9QCwDxb", "prefecture": "長崎県", "source_url": "https://hamutane.com/manhole/yowapeda-manhole/", "status": "active", "title": "松が枝国際ターミナル（小野田坂道）", "work": "弱虫ペダル"}
{"address": "長崎県長崎市江川町", "character": "葦木場拓斗", "city": "長崎市", "first_seen": "2026-07-04T11:38:53Z", "id": "yowapeda-3", "landmark": "野母半島サイクリングロード入口", "last_updated": "2026-07-04T11:38:53Z", "lat": 32.6809865, "lng": 129.8418203, "map_mid": "1WT8bXEgjX4QlIzDuX6LIgrFfZ9QCwDxb", "prefecture": "長崎県", "source_url": "https://hamutane.com/manhole/yowapeda-manhole/", "status": "active", "title": "野母半島サイクリングロード入口（葦木場拓斗）", "work": "弱虫ペダル"}
{"address": "長崎県長崎市香焼町", "character": "新開悠人", "city": "長崎市", "first_seen": "2026-07-04T11:38:53Z", "id": "yowapeda-4", "landmark": "香焼安保地区花壇前", "last_updated": "2026-07-04T11:38:53Z", "lat": 32.6831966, "lng": 129.8024224, "map_mid": "1WT8bXEgjX4QlIzDuX6LIgrFfZ9QCwDxb", "prefecture": "長崎県", "source_url": "https://hamutane.com/manhole/yowapeda-manhole/", "status": "active", "title": "香焼安保地区花壇前（新開悠人）", "work": "弱虫ペダル"}
{"address": "長崎県長崎市伊王島町一丁目", "character": "新開隼人", "city": "長崎市", "first_seen": "2026-07-04T11:38:53Z", "id": "yowapeda-5", "landmark": "伊王島海水浴場", "last_updated": "2026-07-04T11:38:53Z", "lat": 32.7099041, "lng": 129.7684966, "map_mid": "1WT8bXEgjX4QlIzDuX6LIgrFfZ9QCwDxb", "prefecture": "長崎県", "source_url": "https://hamutane.com/manhole/yowapeda-manhole/", "status": "active", "title": "伊王島海水浴場（新開隼人）", "work": "弱虫ペダル"}
{"address": "長崎県長崎市伊王島町一丁目", "character": "福富寿一", "city": "長崎市", "first_seen": "2026-07-04T11:38:53Z", "id": "yowapeda-6", "landmark": "伊王島灯台公園", "last_updated": "2026-07-04T11:38:53Z", "lat": 32.7123992, "lng": 129.7620341, "map_mid": "1WT8bXEgjX4QlIzDuX6LIgrFfZ9QCwDxb", "prefecture": "長崎県", "source_url": "https://hamutane.com/manhole/yowapeda-manhole/", "status": "active", "title": "伊王島灯台公園（福富寿一）", "work": "弱虫ペダル"}
{"address": "長崎県長崎市布巻町", "character": "鏑木一差", "city": "長崎市", "first_seen": "2026-07-04T11:38:53Z", "id": "yowapeda-7", "landmark": "三和公民館", "last_updated": "2026-07-04T11:38:53Z", "lat": 32.6515808, "lng": 129.8273808, "map_mid": "1WT8bXEgjX4QlIzDuX6LIgrFfZ9QCwDxb", "prefecture": "長崎県", "source_url": "https://hamutane.com/manhole/yowapeda-manhole/", "status": "active", "title": "三和公民館（鏑木一差）", "work": "弱虫ペダル"}
{"address": "長崎県長崎市以下宿町", "character": "青八木一", "city": "長崎市", "first_seen": "2026-07-04T11:38:53Z", "id": "yowapeda-8", "landmark": "夫婦岩道路公園", "last_updated": "2026-07-04T11:38:53Z", "lat": 32.6208927, "lng": 129.7919339, "map_mid": "1WT8bXEgjX4QlIzDuX6LIgrFfZ9QCwDxb", "prefecture": "長崎県", "source_url": "https://hamutane.com/manhole/yowapeda-manhole/", "status": "active", "title": "夫婦岩道路公園（青八木一）", "work": "弱虫ペダル"}
{"address": "長崎県長崎市野母町", "character": "手嶋純太", "city": "長崎市", "first_seen": "2026-07-04T11:38:53Z", "id": "yowapeda-9", "landmark": "長崎市恐竜博物館", "last_updated": "2026-07-04T11:38:53Z", "lat": 32.5936344, "lng": 129.7619736, "map_mid": "1WT8bXEgjX4QlIzDuX6LIgrFfZ9QCwDxb", "prefecture": "長崎県", "source_url": "https://hamutane.com/manhole/yowapeda-manhole/", "status": "active", "title": "長崎市恐竜博物館（手嶋純太）", "work": "弱虫ペダル"}
{"address": "長崎県長崎市茂木町", "character": "待宮栄吉/井尾谷諒", "city": "長崎市", "first_seen": "2026-07-04T11:38:53Z", "id": "yowapeda-10", "landmark": "長崎市茂木地域センター周辺", "last_updated": "2026-07-04T11:38:53Z", "lat": 32.7078153, "lng": 129.9123648, "map_mid": "1WT8bXEgjX4QlIzDuX6LIgrFfZ9QCwDxb", "prefecture": "長崎県", "source_url": "https://hamutane.com/manhole/yowapeda-manhole/", "status": "active", "title": "長崎市茂木地域センター周辺（待宮栄吉/井尾谷諒）", "work": "弱虫ペダル"}
{"address": "長崎県長崎市梁川町", "character": "御堂筋翔", "city": "長崎市", "first_seen": "2026-07-04T11:38:53Z", "id": "yowapeda-11", "landmark": "梁川公園", "last_updated": "2026-07-04T11:38:53Z", "lat": 32.7641172, "lng": 129.8606645, "map_mid": "1WT8bXEgjX4QlIzDuX6LIgrFfZ9QCwDxb", "prefecture": "長崎県", "source_url": "https://hamutane.com/manhole/yowapeda-manhole/", "status": "active", "title": "梁川公園（御堂筋翔）", "work": "弱虫ペダル"}
{"address": "長崎県長崎市神ノ島町一丁目", "character": "石垣光太郎", "city": "長崎市", "first_seen": "2026-07-04T11:38:53Z", "id": "yowapeda-12", "landmark": "神の島公園周辺", "last_updated": "2026-07-04T11:38:53Z", "lat": 32.7266423, "lng": 129.8281523, "map_mid": "1WT8bXEgjX4QlIzDuX6LIgrFfZ9QCwDxb", "prefecture": "長崎県", "source_url": "https://hamutane.com/manhole/yowapeda-manhole/", "status": "active", "title": "神の島公園周辺（石垣光太郎）", "work": "弱虫ペダル"}
{"address": "長崎県長崎市柿泊町", "character": "岸神小鞠", "city": "長崎市", "first_seen": "2026-07-04T11:38:53Z", "id": "yowapeda-13", "landmark": "長崎市総合運動公園", "last_updated": "2026-07-04T11:38:53Z", "lat": 32.7732397, "lng": 129.8164959, "map_mid": "1WT8bXEgjX4QlIzDuX6LIgrFfZ9QCwDxb", "prefecture": "長崎県", "source_url": "https://hamutane.com/manhole/yowapeda-manhole/", "status": "active", "title": "長崎市総合運動公園（岸神小鞠）", "work": "弱虫ペダル"}
{"address": "長崎県長崎市京泊三丁目", "character": "水田信行/山口紀之/船津和歩/木利屋崇央", "city": "長崎市", "first_seen": "2026-07-04T11:38:53Z", "id": "yowapeda-14", "landmark": "三重下水処理場周辺", "last_updated": "2026-07-04T11:38:53Z", "lat": 32.8216557, "lng": 129.7720267, "map_mid": "1WT8bXEgjX4QlIzDuX6LIgrFfZ9QCwDxb", "prefecture": "長崎県", "source_url": "https://hamutane.com/manhole/yowapeda-manhole/", "status": "active", "title": "三重下水処理場周辺（水田信行/山口紀之/船津和歩/木利屋崇央）", "work": "弱虫ペダル"}
{"address": "長崎県長崎市東出津町", "character": "東堂尽八", "city": "長崎市", "first_seen": "2026-07-04T11:38:53Z", "id": "yowapeda-15", "landmark": "道の駅夕陽が丘そとめ広場", "last_updated": "2026-07-04T11:38:53Z", "lat": 32.8356914, "lng": 129.7034262, "map_mid": "1WT8bXEgjX4QlIzDuX6LIgrFfZ9QCwDxb", "prefecture": "長崎県", "source_url": "https://hamutane.com/manhole/yowapeda-manhole/", "status": "active", "title": "道の駅夕陽が丘そとめ広場（東堂尽八）", "work": "弱虫ペダル"}
{"address": "長崎県長崎市琴海戸根原町", "character": "泉田塔一郎", "city": "長崎市", "first_seen": "2026-07-04T11:38:53Z", "id": "yowapeda-16", "landmark": "琴海赤水公園", "last_updated": "2026-07-04T11:38:53Z", "lat": 32.9093067, "lng": 129.7533377, "map_mid": "1WT8bXEgjX4QlIzDuX6LIgrFfZ9QCwDxb", "prefecture": "長崎県", "source_url": "https://hamutane.com/manhole/yowapeda-manhole/", "status": "active", "title": "琴海赤水公園（泉田塔一郎）", "work": "弱虫ペダル"}
{"address": "長崎県長崎市琴海村松町", "character": "銅橋正清", "city": "長崎市", "first_seen": "2026-07-04T11:38:53Z", "id": "yowapeda-17", "landmark": "琴海地域センター内", "last_updated": "2026-07-04T11:38:53Z", "lat": 32.8649497, "lng": 129.7871271, "map_mid": "1WT8bXEgjX4QlIzDuX6LIgrFfZ9QCwDxb", "prefecture": "長崎県", "source_url": "https://hamutane.com/manhole/yowapeda-manhole/", "status": "active", "title": "琴海地域センター内（銅橋正清）", "work": "弱虫ペダル"}
{"address": "長崎県長崎市高島町", "character": "浦久保優策/庭場繋典/東村尊太", "city": "長崎市", "first_seen": "2026-07-04T11:38:53Z", "id": "yowapeda-18", "landmark": "高島海水浴場周辺", "last_updated": "2026-07-04T11:38:53Z", "lat": 32.6629505, "lng": 129.7577767, "map_mid": "1WT8bXEgjX4QlIzDuX6LIgrFfZ9QCwDxb", "prefecture": "長崎県", "source_url": "https://hamutane.com/manhole/yowapeda-manhole/", "status": "active", "title": "高島海水浴場周辺（浦久保優策/庭場繋典/東村尊太）", "work": "弱虫ペダル"}
{"address": "長崎県長崎市矢上町", "character": "黒田雪成", "city": "長崎市", "first_seen": "2026-07-04T11:38:53Z", "id": "yowapeda-19", "landmark": "東部地区にこにこセンター", "last_updated": "2026-07-04T11:38:53Z", "lat": 32.7755008, "lng": 129.9517344, "map_mid": "1WT8bXEgjX4QlIzDuX6LIgrFfZ9QCwDxb", "prefecture": "長崎県", "source_url": "https://hamutane.com/manhole/yowapeda-manhole/", "status": "active", "title": "東部地区にこにこセンター（黒田雪成）", "work": "弱虫ペダル"}
{"address": "長崎県長崎市宿町", "character": "杉元照文/古賀公貴", "city": "長崎市", "first_seen": "2026-07-04T11:38:53Z", "id": "yowapeda-20", "landmark": "日見公園周辺", "last_updated": "2026-07-04T11:38:53Z", "lat": 32.7595689, "lng": 129.9417187, "map_mid": "1WT8bXEgjX4QlIzDuX6LIgrFfZ9QCwDxb", "prefecture": "長崎県", "source_url": "https://hamutane.com/manhole/yowapeda-manhole/", "status": "active", "title": "日見公園周辺（杉元照文/古賀公貴）", "work": "弱虫ペダル"}
{"address": "長崎県長崎市松山町", "character": "長崎市営陸上競技場内", "city": "長崎市", "first_seen": "2026-07-04T11:38:53Z", "id": "yowapeda-21", "landmark": "平和公園", "last_updated": "2026-07-04T11:38:53Z", "lat": 32.773919, "lng": 129.8616521, "map_mid": "1WT8bXEgjX4QlIzDuX6LIgrFfZ9QCwDxb", "prefecture": "長崎県", "source_url": "https://hamutane.com/manhole/yowapeda-manhole/", "status": "active", "title": "平和公園（長崎市営陸上競技場内）（荒北靖友）", "work": "弱虫ペダル"}
{"address": "長崎県長崎市茂里町", "character": "金城真護", "city": "長崎市", "first_seen": "2026-07-04T11:38:53Z", "id": "yowapeda-22", "landmark": "長崎ブリックホール周辺", "last_updated": "2026-07-04T11:38:53Z", "lat": 32.7637161, "lng": 129.8627844, "map_mid": "1WT8bXEgjX4QlIzDuX6LIgrFfZ9QCwDxb", "prefecture": "長崎県", "source_url": "https://hamutane.com/manhole/yowapeda-manhole/", "status": "active", "title": "長崎ブリックホール周辺（金城真護）", "work": "弱虫ペダル"}
{"address": "長崎県長崎市尾上町", "character": "鳴子章吉", "city": "長崎市", "first_seen": "2026-07-04T11:38:53Z", "id": "yowapeda-23", "landmark": "長崎駅西口", "last_updated": "2026-07-04T11:38:53Z", "lat": 32.7522659, "lng": 129.8682728, "map_mid": "1WT8bXEgjX4QlIzDuX6LIgrFfZ9QCwDxb", "prefecture": "長崎県", "source_url": "https://hamutane.com/manhole/yowapeda-manhole/", "status": "active", "title": "長崎駅西口（鳴子章吉）", "work": "弱虫ペダル"}
{"address": "長崎県長崎市立山五丁目", "character": "田所迅", "city": "長崎市", "first_seen": "2026-07-04T11:38:53Z", "id": "yowapeda-24", "landmark": "立山公園周辺", "last_updated": "2026-07-04T11:38:53Z", "lat": 32.7607052, "lng": 129.8791618, "map_mid": "1WT8bXEgjX4QlIzDuX6LIgrFfZ9QCwDxb", "prefecture": "長崎県", "source_url": "https://hamutane.com/manhole/yowapeda-manhole/", "status": "active", "title": "立山公園周辺（田所迅）", "work": "弱虫ペダル"}
{"address": "長崎県長崎市江戸町", "character": "今泉俊輔", "city": "長崎市", "first_seen": "2026-07-04T11:38:53Z", "id": "yowapeda-25", "landmark": "出島周辺", "last_updated": "2026-07-04T11:38:53Z", "lat": 32.7439758, "lng": 129.8744999, "map_mid": "1WT8bXEgjX4QlIzDuX6LIgrFfZ9QCwDxb", "prefecture": "長崎県", "source_url": "https://hamutane.com/manhole/yowapeda-manhole/", "status": "active", "title": "出島周辺（今泉俊輔）", "work": "弱虫ペダル"}
{"address": "長崎県長崎市稲佐町", "character": "巻島裕介", "city": "長崎市", "first_seen": "2026-07-04T11:38:53Z", "id": "yowapeda-26", "landmark": "稲佐山公園展望台周辺", "last_updated": "2026-07-04T11:38:53Z", "lat": 32.7528649, "lng": 129.849582, "map_mid": "1WT8bXEgjX4QlIzDuX6LIgrFfZ9QCwDxb", "prefecture": "長崎県", "source_url": "https://hamutane.com/manhole/yowapeda-manhole/", "status": "active", "title": "稲佐山公園展望台周辺（巻島裕介）", "work": "弱虫ペダル"}
{"address": "長崎県長崎市戸町五丁目", "character": "橘綾/寒咲幹/宮原すずこ", "city": "長崎市", "first_seen": "2026-07-04T11:38:53Z", "id": "yowapeda-27", "landmark": "女神大橋周辺", "last_updated": "2026-07-04T11:38:53Z", "lat": 32.7201606, "lng": 129.8522023, "map_mid": "1WT8bXEgjX4QlIzDuX6LIgrFfZ9QCwDxb", "prefecture": "長崎県", "source_url": "https://hamutane.com/manhole/yowapeda-manhole/", "status": "active", "title": "女神大橋周辺（橘綾/寒咲幹/宮原すずこ）", "work": "弱虫ペダル"}
{"address": "静岡県静岡市　葵区追手町", "character": "まる子・友蔵", "city": "静岡市葵区", "first_seen": "2026-07-04T11:39:10Z", "id": "chibimaruko-1", "landmark": "静岡市歴史博物館", "last_updated": "2026-07-04T11:39:10Z", "lat": 34.97664, "lng": 138.385, "map_mid": "", "prefecture": "静岡県", "source_url": "https://www.city.shizuoka.lg.jp/s6487/s001090.html", "status": "active", "title": "静岡市歴史博物館（まる子・友蔵）", "work": "ちびまる子ちゃん"}
{"address": "静岡県静岡市　葵区追手町", "character": "まる子・友蔵", "city": "静岡市葵区", "first_seen": "2026-07-04T11:39:10Z", "id": "chibimaruko-2", "landmark": "静岡市役所（青葉通り）", "last_updated": "2026-07-04T11:39:10Z", "lat": 34.97547, "lng": 138.38288, "map_mid": "", "prefecture": "静岡県", "source_url": "https://www.city.shizuoka.lg.jp/s6487/s001090.html", "status": "active", "title": "静岡市役所（青葉通り）（まる子・友蔵）", "work": "ちびまる子ちゃん"}
{"address": "静岡県静岡市　葵区黒金町", "character": "まる子・友蔵", "city": "静岡市葵区", "first_seen": "2026-07-04T11:39:10Z", "id": "chibimaruko-3", "landmark": "静岡駅北口", "last_updated": "2026-07-04T11:39:10Z", "lat": 34.97179, "lng": 138.38899, "map_mid": "", "prefecture": "静岡県", "source_url": "https://www.city.shizuoka.lg.jp/s6487/s001090.html", "status": "active", "title": "静岡駅北口（まる子・友蔵）", "work": "ちびまる子ちゃん"}
{"address": "静岡県静岡市　葵区黒金町", "character": "まる子・たまちゃん", "city": "静岡市駿河区", "first_seen": "2026-07-04T11:39:10Z", "id": "chibimaruko-4", "landmark": "静岡駅南口", "last_updated": "2026-07-04T11:39:10Z", "lat": 34.971, "lng": 138.38899, "map_mid": "", "prefecture": "静岡県", "source_url": "https://www.city.shizuoka.lg.jp/s6487/s001090.html", "status": "active", "title": "静岡駅南口（まる子・たまちゃん）", "work": "ちびまる子ちゃん"}
{"address": "静岡県静岡市　駿河区東静岡二丁目", "character": "まる子・たまちゃん", "city": "静岡市駿河区", "first_seen": "2026-07-04T11:39:10Z", "id": "chibimaruko-5", "landmark": "グランシップ", "last_updated": "2026-07-04T11:39:10Z", "lat": 34.98555, "lng": 138.41689, "map_mid": "", "prefecture": "静岡県", "source_url": "https://www.city.shizuoka.lg.jp/s6487/s001090.html", "status": "active", "title": "グランシップ（まる子・たまちゃん）", "work": "ちびまる子ちゃん"}
{"address": "静岡県静岡市　駿河区池田", "character": "まる子・たまちゃん", "city": "静岡市駿河区", "first_seen": "2026-07-04T11:39:10Z", "id": "chibimaruko-6", "landmark": "日本平動物園", "last_updated": "2026-07-04T11:39:10Z", "lat": 34.97982, "lng": 138.44051, "map_mid": "", "prefecture": "静岡県", "source_url": "https://www.city.shizuoka.lg.jp/s6487/s001090.html", "status": "active", "title": "日本平動物園（まる子・たまちゃん）", "work": "ちびまる子ちゃん"}
{"address": "静岡県静岡市　清水区入船町", "character": "ちびまる子ちゃん", "city": "静岡市清水区", "first_seen": "2026-07-04T11:39:10Z", "id": "chibimaruko-7", "landmark": "エスパルスドリームプラザ", "last_updated": "2026-07-04T11:39:10Z", "lat": 35.01083, "lng": 138.49276, "map_mid": "", "prefecture": "静岡県", "source_url": "https://www.city.shizuoka.lg.jp/s6487/s001090.html", "status": "active", "title": "エスパルスドリームプラザ（ちびまる子ちゃん）", "work": "ちびまる子ちゃん"}
{"address": "静岡県静岡市　清水区三保松原町", "character": "ちびまる子ちゃん", "city": "静岡市清水区", "first_seen": "2026-07-04T11:39:10Z", "id": "chibimaruko-8", "landmark": "三保生涯学習交流館", "last_updated": "2026-07-04T11:39:10Z", "lat": 34.99849, "lng": 138.52039, "map_mid": "", "prefecture": "静岡県", "source_url": "https://www.city.shizuoka.lg.jp/s6487/s001090.html", "status": "active", "title": "三保生涯学習交流館（ちびまる子ちゃん）", "work": "ちびまる子ちゃん"}
{"address": "静岡県静岡市　清水区相生町", "character": "ちびまる子ちゃん", "city": "静岡市清水区", "first_seen": "2026-07-04T11:39:10Z", "id": "chibimaruko-9", "landmark": "新清水駅", "last_updated": "2026-07-04T11:39:10Z", "lat": 35.01709, "lng": 138.48788, "map_mid": "", "prefecture": "静岡県", "source_url": "https://www.city.shizuoka.lg.jp/s6487/s001090.html", "status": "active", "title": "新清水駅（ちびまる子ちゃん）", "work": "ちびまる子ちゃん"}
