{"id":"1","title":"鹿児島県/指宿市","prefecture":"鹿児島県","city":"指宿","address":"鹿児島県指宿市湊1丁目1-1","city_url":"","lat":31.237194,"lng":130.642861,"pokemons":["イーブイ"],"detail_url":"https://local.pokemon.jp/manhole/desc/1/?is_modal=1","prefecture_site_url":"","first_seen":"2025-10-26T15:16:55Z","added_at":"2025-10-26T15:16:55Z","last_updated":"2025-10-27T02:17:05Z","status":"active"}
{"id":"2","title":"鹿児島県/指宿市","prefecture":"鹿児島県","city":"指宿","address":"鹿児島県指宿市湯の浜5丁目26-29","city_url":"","lat":31.228,"lng":130.653028,"pokemons":["シャワーズ"],"detail_url":"https://local.pokemon.jp/manhole/desc/2/?is_modal=1","prefecture_site_url":"","first_seen":"2025-10-26T15:16:56Z","added_at":"2025-10-26T15:16:56Z","last_updated":"2025-10-27T02:17:05Z","status":"active"}
{"id":"3","title":"鹿児島県/指宿市","prefecture":"鹿児島県","city":"指宿","address":"","city_url":"","lat":31.255278,"lng":130.647639,"pokemons":["サンダース"],"detail_url":"https://local.pokemon.jp/manhole/desc/3/?is_modal=1","prefecture_site_url":"","first_seen":"2025-10-26T15:16:57Z","added_at":"2025-10-26T15:16:57Z","last_updated":"2025-10-27T02:17:05Z","status":"active"}
{"id":"4","title":"鹿児島県/指宿市","prefecture":"鹿児島県","city":"指宿","address":"鹿児島県指宿市湯の浜5丁目25-18","city_url":"","lat":31.229417,"lng":130.651972,"pokemons":["ブースター"],"detail_url":"https://local.pokemon.jp/manhole/desc/4/?is_modal=1","prefecture_site_url":"","first_seen":"2025-10-26T15:16:58Z","added_at":"2025-10-26T15:16:58Z","last_updated":"2025-10-27T02:17:05Z","status":"active"}
{"id":"5","title":"鹿児島県/指宿市","prefecture":"鹿児島県","city":"指宿","address":"鹿児島県指宿市湊2丁目5-33","city_url":"","lat":31.238278,"lng":130.645,"pokemons":["エーフィ"],"detail_url":"https://local.pokemon.jp/manhole/desc/5/?is_modal=1","prefecture_site_url":"","first_seen":"2025-10-26T15:16:59Z","added_at":"2025-10-26T15:16:59Z","last_updated":"2025-10-27T02:17:05Z","status":"active"}
{"id":"6","title":"鹿児島県/指宿市","prefecture":"鹿児島県","city":"指宿","address":"","city_url":"","lat":31.236833,"lng":130.642188,"pokemons":["ブラッキー"],"detail_url":"https://local.pokemon.jp/manhole/desc/6/?is_modal=1","prefecture_site_url":"","first_seen":"2025-10-26T15:17:01Z","added_at":"2025-10-26T15:17:01Z","last_updated":"2025-10-27T02:17:05Z","status":"active"}
{"id":"7","title":"鹿児島県/指宿市","prefecture":"鹿児島県","city":"指宿","address":"","city_url":"","lat":31.263889,"lng":130.662917,"pokemons":["リーフィア"],"detail_url":"https://local.pokemon.jp/manhole/desc/7/?is_modal=1","prefecture_site_url":"","first_seen":"2025-10-26T15:17:02Z","added_at":"2025-10-26T15:17:02Z","last_updated":"2025-10-27T02:17:05Z","status":"active"}
{"id":"8","title":"鹿児島県/指宿市","prefecture":"鹿児島県","city":"指宿","address":"","city_url":"","lat":31.231056,"lng":130.644611,"pokemons":["グレイシア"],"detail_url":"https://local.pokemon.jp/manhole/desc/8/?is_modal=1","prefecture_site_url":"","first_seen":"2025-10-26T15:17:03Z","added_at":"2025-10-26T15:17:03Z","last_updated":"2025-10-27T02:17:05Z","status":"active"}
{"id":"9","title":"鹿児島県/指宿市","prefecture":"鹿児島県","city":"指宿","address":"","city_url":"","lat":31.235444,"lng":130.641389,"pokemons":["ニンフィア"],"detail_url":"https://local.pokemon.jp/manhole/desc/9/?is_modal=1","prefecture_site_url":"","first_seen":"2025-10-26T15:17:04Z","added_at":"2025-10-26T15:17:04Z","last_updated":"2025-10-27T02:17:05Z","status":"active"}
{"id":"10","title":"岩手県/洋野町","prefecture":"岩手県","city":"洋野","address":"岩手県洋野町種市22-133-11","city_url":"","lat":40.406101,"lng":141.719531,"pokemons":["カブト","ローカルActs岩手県ページへ"],"detail_url":"https://local.pokemon.jp/manhole/desc/10/?is_modal=1","prefecture_site_url":"","first_seen":"2025-10-26T15:17:06Z","added_at":"2025-10-26T15:17:06Z","last_updated":"2025-10-27T02:17:05Z","status":"active"}
{"id":"11","title":"岩手県/久慈市","prefecture":"岩手県","city":"久慈","address":"岩手県久慈市中町2-5-6","city_url":"","lat":40.189742,"lng":141.765832,"pokemons":["プテラ","ローカルActs岩手県ページへ"],"detail_url":"https://local.pokemon.jp/manhole/desc/11/?is_modal=1","prefecture_site_url":"","first_seen":"2025-10-26T15:17:07Z","added_at":"2025-10-26T15:17:07Z","last_updated":"2025-10-27T02:17:05Z","status":"active"}
{"id":"12","title":"岩手県/野田村","prefecture":"岩手県","city":"野田","address":"","city_url":"","lat":40.082726,"lng":141.828678,"pokemons":["イワーク","ローカルActs岩手県ページへ"],"detail_url":"https://local.pokemon.jp/manhole/desc/12/?is_modal=1","prefecture_site_url":"","first_seen":"2025-10-26T15:17:08Z","added_at":"2025-10-26T15:17:08Z","last_updated":"2025-10-27T02:17:05Z","status":"active"}
{"id":"13","title":"岩手県/普代村","prefecture":"岩手県","city":"普代","address":"岩手県普代村9-5-3","city_url":"","lat":40.002821,"lng":141.885736,"pokemons":["タテトプス","ローカルActs岩手県ページへ"],"detail_url":"https://local.pokemon.jp/manhole/desc/13/?is_modal=1","prefecture_site_url":"","first_seen":"2025-10-26T15:17:09Z","added_at":"2025-10-26T15:17:09Z","last_updated":"2025-10-27T02:17:05Z","status":"active"}
{"id":"14","title":"岩手県/岩泉町","prefecture":"岩手県","city":"岩泉","address":"","city_url":"","lat":39.86044,"lng":141.796532,"pokemons":["チゴラス","ローカルActs岩手県ページへ"],"detail_url":"https://local.pokemon.jp/manhole/desc/14/?is_modal=1","prefecture_site_url":"","first_seen":"2025-10-26T15:17:10Z","added_at":"2025-10-26T15:17:10Z","last_updated":"2025-10-27T02:17:05Z","status":"active"}
{"id":"15","title":"岩手県/田野畑村","prefecture":"岩手県","city":"田野畑","address":"","city_url":"","lat":39.916682,"lng":141.938688,"pokemons":["ノズパス","ローカルActs岩手県ページへ"],"detail_url":"https://local.pokemon.jp/manhole/desc/15/?is_modal=1","prefecture_site_url":"","first_seen":"2025-10-26T15:17:11Z","added_at":"2025-10-26T15:17:11Z","last_updated":"2025-10-27T02:17:05Z","status":"active"}
{"id":"16","title":"岩手県/宮古市","prefecture":"岩手県","city":"宮古","address":"","city_url":"","lat":39.639471,"lng":141.969701,"pokemons":["イシツブテ","ローカルActs岩手県ページへ"],"detail_url":"https://local.pokemon.jp/manhole/desc/16/?is_modal=1","prefecture_site_url":"","first_seen":"2025-10-26T15:17:12Z","added_at":"2025-10-26T15:17:12Z","last_updated":"2025-10-27T02:17:05Z","status":"active"}
{"id":"17","title":"岩手県/山田町","prefecture":"岩手県","city":"山田","address":"","city_url":"","lat":39.464186,"lng":141.951043,"pokemons":["オムナイト","ローカルActs岩手県ページへ"],"detail_url":"https://local.pokemon.jp/manhole/desc/17/?is_modal=1","prefecture_site_url":"","first_seen":"2025-10-26T15:17:13Z","added_at":"2025-10-26T15:17:13Z","last_updated":"2025-10-27T02:17:05Z","status":"active"}
{"id":"18","title":"岩手県/大槌町","prefecture":"岩手県","city":"大槌","address":"","city_url":"","lat":39.357255,"lng":141.90316,"pokemons":["ツボツボ","ローカルActs岩手県ページへ"],"detail_url":"https://local.pokemon.jp/manhole/desc/18/?is_modal=1","prefecture_site_url":"","first_seen":"2025-10-26T15:17:14Z","added_at":"2025-10-26T15:17:14Z","last_updated":"2025-10-27T02:17:05Z","status":"active"}
{"id":"19","title":"岩手県/釜石市","prefecture":"岩手県","city":"釜石","address":"","city_url":"","lat":39.326865,"lng":141.887862,"pokemons":["ココドラ","ローカルActs岩手県ページへ"],"detail_url":"https://local.pokemon.jp/manhole/desc/19/?is_modal=1","prefecture_site_url":"","first_seen":"2025-10-26T15:17:15Z","added_at":"2025-10-26T15:17:15Z","last_updated":"2025-10-27T02:17:05Z","status":"active"}
{"id":"20","title":"岩手県/大船渡市","prefecture":"岩手県","city":"大船渡","address":"","city_url":"","lat":39.085906,"lng":141.710256,"pokemons":["サイホーン","ローカルActs岩手県ページへ"],"detail_url":"https://local.pokemon.jp/manhole/desc/20/?is_modal=1","prefecture_site_url":"","first_seen":"2025-10-26T15:17:16Z","added_at":"2025-10-26T15:17:16Z","last_updated":"2025-10-27T02:17:05Z","status":"active"}
{"id":"21","title":"岩手県/陸前高田市","prefecture":"岩手県","city":"陸前高田","address":"","city_url":"","lat":39.01675,"lng":141.628694,"pokemons":["イワンコ","ローカルActs岩手県ページへ"],"detail_url":"https://local.pokemon.jp/manhole/desc/21/?is_modal=1","prefecture_site_url":"","first_seen":"2025-10-26T15:17:17Z","added_at":"2025-10-26T15:17:17Z","last_updated":"2025-10-27T02:17:05Z","status":"active"}
{"id":"22","title":"岩手県/住田町","prefecture":"岩手県","city":"住田","address":"","city_url":"","lat":39.142287,"lng":141.574456,"pokemons":["ヨーギラス","ローカルActs岩手県ページへ"],"detail_url":"https://local.pokemon.jp/manhole/desc/22/?is_modal=1","prefecture_site_url":"","first_seen":"2025-10-26T15:17:18Z","added_at":"2025-10-26T15:17:18Z","last_updated":"2025-10-27T02:17:05Z","status":"active"}
{"id":"23","title":"神奈川県/横浜市","prefecture":"神奈川県","city":"横浜","address":"","city_url":"","lat":35.451167,"lng":139.631501,"pokemons":["ピカチュウ"],"detail_url":"https://local.pokemon.jp/manhole/desc/23/?is_modal=1","prefecture_site_url":"","first_seen":"2025-10-26T15:17:19Z","added_at":"2025-10-26T15:17:19Z","last_updated":"2025-10-27T02:17:05Z","status":"active"}
{"id":"28","title":"香川県/高松市","prefecture":"香川県","city":"高松","address":"","city_url":"","lat":34.338888,"lng":134.049052,"pokemons":["ヤドン","ローカルActs香川県ページへ"],"detail_url":"https://local.pokemon.jp/manhole/desc/28/?is_modal=1","prefecture_site_url":"","first_seen":"2025-10-26T15:17:22Z","added_at":"2025-10-26T15:17:22Z","last_updated":"2025-10-27T02:17:05Z","status":"active"}
{"id":"29","title":"香川県/丸亀市","prefecture":"香川県","city":"丸亀","address":"","city_url":"","lat":34.292014,"lng":133.793951,"pokemons":["ヤドン","ローカルActs香川県ページへ"],"detail_url":"https://local.pokemon.jp/manhole/desc/29/?is_modal=1","prefecture_site_url":"","first_seen":"2025-10-26T15:17:24Z","added_at":"2025-10-26T15:17:24Z","last_updated":"2025-10-27T02:17:05Z","status":"active"}
{"id":"30","title":"香川県/坂出市","prefecture":"香川県","city":"坂出","address":"香川県坂出市駒止町1丁目4","city_url":"","lat":34.312992,"lng":133.856292,"pokemons":["ヤドン","ローカルActs香川県ページへ"],"detail_url":"https://local.pokemon.jp/manhole/desc/30/?is_modal=1","prefecture_site_url":"","first_seen":"2025-10-26T15:17:25Z","added_at":"2025-10-26T15:17:25Z","last_updated":"2025-10-27T02:17:05Z","status":"active"}
{"id":"31","title":"香川県/善通寺市","prefecture":"香川県","city":"善通寺","address":"","city_url":"","lat":34.22531,"lng":133.7773,"pokemons":["ヤドラン","ヤドン","ローカルActs香川県ページへ"],"detail_url":"https://local.pokemon.jp/manhole/desc/31/?is_modal=1","prefecture_site_url":"","first_seen":"2025-10-26T15:17:25Z","added_at":"2025-10-26T15:17:25Z","last_updated":"2025-10-27T02:17:05Z","status":"active"}
{"id":"32","title":"香川県/観音寺市","prefecture":"香川県","city":"観音寺","address":"","city_url":"","lat":34.125275,"lng":133.655211,"pokemons":["ヤドキング","ヤドン","ローカルActs香川県ページへ"],"detail_url":"https://local.pokemon.jp/manhole/desc/32/?is_modal=1","prefecture_site_url":"","first_seen":"2025-10-26T15:17:26Z","added_at":"2025-10-26T15:17:26Z","last_updated":"2025-10-27T02:17:05Z","status":"active"}
{"id":"33","title":"香川県/さぬき市","prefecture":"香川県","city":"さぬき","address":"","city_url":"","lat":34.321305,"lng":134.173241,"pokemons":["ピッピ","ヤドン","ローカルActs香川県ページへ"],"detail_url":"https://local.pokemon.jp/manhole/desc/33/?is_modal=1","prefecture_site_url":"","first_seen":"2025-10-26T15:17:27Z","added_at":"2025-10-26T15:17:27Z","last_updated":"2025-10-27T02:17:05Z","status":"active"}
{"id":"34","title":"香川県/東かがわ市","prefecture":"香川県","city":"東かがわ","address":"","city_url":"","lat":34.251174,"lng":134.333457,"pokemons":["ヤドン","ローカルActs香川県ページへ"],"detail_url":"https://local.pokemon.jp/manhole/desc/34/?is_modal=1","prefecture_site_url":"","first_seen":"2025-10-26T15:17:28Z","added_at":"2025-10-26T15:17:28Z","last_updated":"2025-10-27T02:17:05Z","status":"active"}
{"id":"35","title":"香川県/三豊市","prefecture":"香川県","city":"三豊","address":"","city_url":"","lat":34.2687992,"lng":133.6322219,"pokemons":["シェルダー","ヤドン","ローカルActs香川県ページへ"],"detail_url":"https://local.pokemon.jp/manhole/desc/35/?is_modal=1","prefecture_site_url":"","first_seen":"2025-10-26T15:17:29Z","added_at":"2025-10-26T15:17:29Z","last_updated":"2025-10-27T02:17:05Z","status":"active"}
{"id":"36","title":"香川県/土庄町","prefecture":"香川県","city":"土庄","address":"","city_url":"","lat":34.482694,"lng":134.187512,"pokemons":["メタモン","ヤドン","ローカルActs香川県ページへ"],"detail_url":"https://local.pokemon.jp/manhole/desc/36/?is_modal=1","prefecture_site_url":"","first_seen":"2025-10-26T15:17:30Z","added_at":"2025-10-26T15:17:30Z","last_updated":"2025-10-27T02:17:05Z","status":"active"}
{"id":"37","title":"香川県/小豆島町","prefecture":"香川県","city":"小豆島","address":"","city_url":"","lat":34.4708542,"lng":134.2358695,"pokemons":["ヤドン","ローカルActs香川県ページへ"],"detail_url":"https://local.pokemon.jp/manhole/desc/37/?is_modal=1","prefecture_site_url":"","first_seen":"2025-10-26T15:17:31Z","added_at":"2025-10-26T15:17:31Z","last_updated":"2025-10-27T02:17:05Z","status":"active"}
{"id":"38","title":"香川県/三木町","prefecture":"香川県","city":"三木","address":"","city_url":"","lat":34.268586,"lng":134.134567,"pokemons":["ヤドン","ローカルActs香川県ページへ"],"detail_url":"https://local.pokemon.jp/manhole/desc/38/?is_modal=1","prefecture_site_url":"","first_seen":"2025-10-26T15:17:32Z","added_at":"2025-10-26T15:17:32Z","last_updated":"2025-10-27T02:17:05Z","status":"active"}
{"id":"39","title":"香川県/直島町","prefecture":"香川県","city":"直島","address":"香川県直島町2249番地55","city_url":"","lat":34.455827,"lng":133.975492,"pokemons":["コイキング","ヤドン","ローカルActs香川県ページへ"],"detail_url":"https://local.pokemon.jp/manhole/desc/39/?is_modal=1","prefecture_site_url":"","first_seen":"2025-10-26T15:17:33Z","added_at":"2025-10-26T15:17:33Z","last_updated":"2025-10-27T02:17:05Z","status":"active"}
{"id":"40","title":"香川県/綾川町","prefecture":"香川県","city":"綾川","address":"","city_url":"","lat":34.250399,"lng":133.917073,"pokemons":["ヤドン","ローカルActs香川県ページへ"],"detail_url":"https://local.pokemon.jp/manhole/desc/40/?is_modal=1","prefecture_site_url":"","first_seen":"2025-10-26T15:17:34Z","added_at":"2025-10-26T15:17:34Z","last_updated":"2025-10-27T02:17:05Z","status":"active"}
{"id":"41","title":"香川県/琴平町","prefecture":"香川県","city":"琴平","address":"","city_url":"","lat":34.187735,"lng":133.819896,"pokemons":["ヤドン","ローカルActs香川県ページへ"],"detail_url":"https://local.pokemon.jp/manhole/desc/41/?is_modal=1","prefecture_site_url":"","first_seen":"2025-10-26T15:17:35Z","added_at":"2025-10-26T15:17:35Z","last_updated":"2025-10-27T02:17:05Z","status":"active"}
{"id":"42","title":"香川県/多度津町","prefecture":"香川県","city":"多度津","address":"","city_url":"","lat":34.272282,"lng":133.757247,"pokemons":["ヤドン","ローカルActs香川県ページへ"],"detail_url":"https://local.pokemon.jp/manhole/desc/42/?is_modal=1","prefecture_site_url":"","first_seen":"2025-10-26T15:17:36Z","added_at":"2025-10-26T15:17:36Z","last_updated":"2025-10-27T02:17:05Z","status":"active"}
{"id":"43","title":"香川県/まんのう町","prefecture":"香川県","city":"まんのう","address":"","city_url":"","lat":34.173339,"lng":133.871387,"pokemons":["ヤドン","ローカルActs香川県ページへ"],"detail_url":"https://local.pokemon.jp/manhole/desc/43/?is_modal=1","prefecture_site_url":"","first_seen":"2025-10-26T15:17:37Z","added_at":"2025-10-26T15:17:37Z","last_updated":"2025-10-27T02:17:05Z","status":"active"}
{"id":"44","title":"宮城県/気仙沼市","prefecture":"宮城県","city":"気仙沼","address":"","city_url":"","lat":38.905694,"lng":141.574667,"pokemons":["イシツブテ","ラプラス","ローカルActs宮城県ページへ"],"detail_url":"https://local.pokemon.jp/manhole/desc/44/?is_modal=1","prefecture_site_url":"","first_seen":"2025-10-26T15:17:38Z","added_at":"2025-10-26T15:17:38Z","last_updated":"2025-10-27T02:17:05Z","status":"active"}
{"id":"45","title":"宮城県/南三陸町","prefecture":"宮城県","city":"南三陸","address":"","city_url":"","lat":38.717061,"lng":141.52115,"pokemons":["オクタン","ラプラス","ローカルActs宮城県ページへ"],"detail_url":"https://local.pokemon.jp/manhole/desc/45/?is_modal=1","prefecture_site_url":"","first_seen":"2025-10-26T15:17:39Z","added_at":"2025-10-26T15:17:39Z","last_updated":"2025-10-27T02:17:05Z","status":"active"}
{"id":"46","title":"宮城県/女川町","prefecture":"宮城県","city":"女川","address":"","city_url":"","lat":38.445695,"lng":141.44623,"pokemons":["キャモメ","ラプラス","ローカルActs宮城県ページへ"],"detail_url":"https://local.pokemon.jp/manhole/desc/46/?is_modal=1","prefecture_site_url":"","first_seen":"2025-10-26T15:17:40Z","added_at":"2025-10-26T15:17:40Z","last_updated":"2025-10-27T02:17:05Z","status":"active"}
{"id":"47","title":"宮城県/石巻市","prefecture":"宮城県","city":"石巻","address":"","city_url":"","lat":38.433844,"lng":141.303041,"pokemons":["エネコ","ニャビー","ニャルマー","ニャース","ラプラス","ローカルActs宮城県ページへ"],"detail_url":"https://local.pokemon.jp/manhole/desc/47/?is_modal=1","prefecture_site_url":"","first_seen":"2025-10-26T15:17:41Z","added_at":"2025-10-26T15:17:41Z","last_updated":"2025-10-27T02:17:05Z","status":"active"}
{"id":"48","title":"宮城県/東松島市","prefecture":"宮城県","city":"東松島","address":"","city_url":"","lat":38.379414,"lng":141.15671,"pokemons":["ラティオス","ラプラス","ローカルActs宮城県ページへ"],"detail_url":"https://local.pokemon.jp/manhole/desc/48/?is_modal=1","prefecture_site_url":"","first_seen":"2025-10-26T15:17:42Z","added_at":"2025-10-26T15:17:42Z","last_updated":"2025-10-27T02:17:05Z","status":"active"}
{"id":"49","title":"宮城県/松島町","prefecture":"宮城県","city":"松島","address":"","city_url":"","lat":38.368987,"lng":141.061207,"pokemons":["ラプラス","ローカルActs宮城県ページへ"],"detail_url":"https://local.pokemon.jp/manhole/desc/49/?is_modal=1","prefecture_site_url":"","first_seen":"2025-10-26T15:17:43Z","added_at":"2025-10-26T15:17:43Z","last_updated":"2025-10-27T02:17:05Z","status":"active"}
{"id":"50","title":"宮城県/塩竈市","prefecture":"宮城県","city":"塩竈","address":"","city_url":"","lat":38.318226,"lng":141.023075,"pokemons":["プラスル","ラプラス","ローカルActs宮城県ページへ"],"detail_url":"https://local.pokemon.jp/manhole/desc/50/?is_modal=1","prefecture_site_url":"","first_seen":"2025-10-26T15:17:44Z","added_at":"2025-10-26T15:17:44Z","last_updated":"2025-10-27T02:17:05Z","status":"active"}
{"id":"51","title":"宮城県/利府町","prefecture":"宮城県","city":"利府","address":"","city_url":"","lat":38.329512,"lng":140.975248,"pokemons":["マイナン","ラプラス","ローカルActs宮城県ページへ"],"detail_url":"https://local.pokemon.jp/manhole/desc/51/?is_modal=1","prefecture_site_url":"","first_seen":"2025-10-26T15:17:45Z","added_at":"2025-10-26T15:17:45Z","last_updated":"2025-10-27T02:17:05Z","status":"active"}
{"id":"52","title":"宮城県/七ヶ浜町","prefecture":"宮城県","city":"七ヶ浜","address":"","city_url":"","lat":38.304315,"lng":141.083342,"pokemons":["ヒトデマン","メタモン","ラプラス","ローカルActs宮城県ページへ"],"detail_url":"https://local.pokemon.jp/manhole/desc/52/?is_modal=1","prefecture_site_url":"","first_seen":"2025-10-26T15:17:46Z","added_at":"2025-10-26T15:17:46Z","last_updated":"2025-10-27T02:17:05Z","status":"active"}
{"id":"53","title":"宮城県/多賀城市","prefecture":"宮城県","city":"多賀城","address":"宮城県多賀城市中央2丁目7番地","city_url":"","lat":38.291943,"lng":141.007158,"pokemons":["タッツー","ラプラス","ローカルActs宮城県ページへ"],"detail_url":"https://local.pokemon.jp/manhole/desc/53/?is_modal=1","prefecture_site_url":"","first_seen":"2025-10-26T15:17:47Z","added_at":"2025-10-26T15:17:47Z","last_updated":"2025-10-27T02:17:05Z","status":"active"}
{"id":"54","title":"宮城県/仙台市","prefecture":"宮城県","city":"仙台","address":"","city_url":"","lat":38.258587,"lng":140.872666,"pokemons":["ジラーチ","ラプラス","ローカルActs宮城県ページへ"],"detail_url":"https://local.pokemon.jp/manhole/desc/54/?is_modal=1","prefecture_site_url":"","first_seen":"2025-10-26T15:17:48Z","added_at":"2025-10-26T15:17:48Z","last_updated":"2025-10-27T02:17:05Z","status":"active"}
{"id":"55","title":"宮城県/名取市","prefecture":"宮城県","city":"名取","address":"","city_url":"","lat":38.17213,"lng":140.954044,"pokemons":["ラプラス","ローカルActs宮城県ページへ"],"detail_url":"https://local.pokemon.jp/manhole/desc/55/?is_modal=1","prefecture_site_url":"","first_seen":"2025-10-26T15:17:49Z","added_at":"2025-10-26T15:17:49Z","last_updated":"2025-10-27T02:17:05Z","status":"active"}
{"id":"56","title":"宮城県/岩沼市","prefecture":"宮城県","city":"岩沼","address":"宮城県岩沼市中央1丁目2-13","city_url":"","lat":38.105296,"lng":140.866325,"pokemons":["トゲピー","ラプラス","ローカルActs宮城県ページへ"],"detail_url":"https://local.pokemon.jp/manhole/desc/56/?is_modal=1","prefecture_site_url":"","first_seen":"2025-10-26T15:17:50Z","added_at":"2025-10-26T15:17:50Z","last_updated":"2025-10-27T02:17:05Z","status":"active"}
{"id":"57","title":"宮城県/亘理町","prefecture":"宮城県","city":"亘理","address":"","city_url":"","lat":38.04217,"lng":140.915724,"pokemons":["スバメ","チルット","マメパト","ムックル","ラプラス","ローカルActs宮城県ページへ"],"detail_url":"https://local.pokemon.jp/manhole/desc/57/?is_modal=1","prefecture_site_url":"","first_seen":"2025-10-26T15:17:51Z","added_at":"2025-10-26T15:17:51Z","last_updated":"2025-10-27T02:17:05Z","status":"active"}
{"id":"58","title":"宮城県/山元町","prefecture":"宮城県","city":"山元","address":"","city_url":"","lat":37.923988,"lng":140.900996,"pokemons":["ラッキー","ラプラス","ローカルActs宮城県ページへ"],"detail_url":"https://local.pokemon.jp/manhole/desc/58/?is_modal=1","prefecture_site_url":"","first_seen":"2025-10-26T15:17:52Z","added_at":"2025-10-26T15:17:52Z","last_updated":"2025-10-27T02:17:05Z","status":"active"}
{"id":"59","title":"北海道/石狩市","prefecture":"北海道","city":"石狩","address":"","city_url":"","lat":43.585848,"lng":141.423898,"pokemons":["ナエトル","ロコン","ローカルActs北海道ページへ"],"detail_url":"https://local.pokemon.jp/manhole/desc/59/?is_modal=1","prefecture_site_url":"","first_seen":"2025-10-26T15:17:53Z","added_at":"2025-10-26T15:17:53Z","last_updated":"2025-10-27T02:17:05Z","status":"active"}
{"id":"60","title":"北海道/恵庭市","prefecture":"北海道","city":"恵庭","address":"","city_url":"","lat":42.897132,"lng":141.585789,"pokemons":["ロコン","ローカルActs北海道ページへ"],"detail_url":"https://local.pokemon.jp/manhole/desc/60/?is_modal=1","prefecture_site_url":"","first_seen":"2025-10-26T15:17:54Z","added_at":"2025-10-26T15:17:54Z","last_updated":"2025-10-27T02:17:05Z","status":"active"}
{"id":"61","title":"北海道/洞爺湖町","prefecture":"北海道","city":"洞爺湖","address":"","city_url":"","lat":42.566111,"lng":140.819072,"pokemons":["ウリムー","ロコン","ローカルActs北海道ページへ"],"detail_url":"https://local.pokemon.jp/manhole/desc/61/?is_modal=1","prefecture_site_url":"","first_seen":"2025-10-26T15:17:55Z","added_at":"2025-10-26T15:17:55Z","last_updated":"2025-10-27T02:17:05Z","status":"active"}
{"id":"62","title":"北海道/森町","prefecture":"北海道","city":"森","address":"","city_url":"","lat":42.108855,"lng":140.572941,"pokemons":["アローラロコン","マーイーカ","ローカルActs北海道ページへ"],"detail_url":"https://local.pokemon.jp/manhole/desc/62/?is_modal=1","prefecture_site_url":"","first_seen":"2025-10-26T15:17:56Z","added_at":"2025-10-26T15:17:56Z","last_updated":"2025-10-27T02:17:05Z","status":"active"}
{"id":"63","title":"北海道/上ノ国町","prefecture":"北海道","city":"上ノ国","address":"北海道上ノ国町字原歌3番地","city_url":"","lat":41.808398,"lng":140.095409,"pokemons":["ヒコザル","ロコン","ローカルActs北海道ページへ"],"detail_url":"https://local.pokemon.jp/manhole/desc/63/?is_modal=1","prefecture_site_url":"","first_seen":"2025-10-26T15:17:57Z","added_at":"2025-10-26T15:17:57Z","last_updated":"2025-10-27T02:17:05Z","status":"active"}
{"id":"64","title":"北海道/士別市","prefecture":"北海道","city":"士別","address":"北海道士別市大通東5丁目","city_url":"","lat":44.175974,"lng":142.392417,"pokemons":["メリープ","ロコン","ローカルActs北海道ページへ"],"detail_url":"https://local.pokemon.jp/manhole/desc/64/?is_modal=1","prefecture_site_url":"","first_seen":"2025-10-26T15:17:58Z","added_at":"2025-10-26T15:17:58Z","last_updated":"2025-10-27T02:17:05Z","status":"active"}
{"id":"65","title":"北海道/比布町","prefecture":"北海道","city":"比布","address":"北海道比布町西町2丁目6番1号","city_url":"","lat":43.875033,"lng":142.471699,"pokemons":["アローラロコン","ポッチャマ","ローカルActs北海道ページへ"],"detail_url":"https://local.pokemon.jp/manhole/desc/65/?is_modal=1","prefecture_site_url":"","first_seen":"2025-10-26T15:17:59Z","added_at":"2025-10-26T15:17:59Z","last_updated":"2025-10-27T02:17:05Z","status":"active"}
{"id":"66","title":"北海道/天塩町","prefecture":"北海道","city":"天塩","address":"北海道天塩町新開通4丁目7227番地2","city_url":"","lat":44.88452,"lng":141.74797,"pokemons":["アローラロコン","ロコン","ローカルActs北海道ページへ"],"detail_url":"https://local.pokemon.jp/manhole/desc/66/?is_modal=1","prefecture_site_url":"","first_seen":"2025-10-26T15:18:00Z","added_at":"2025-10-26T15:18:00Z","last_updated":"2025-10-27T02:17:05Z","status":"active"}
{"id":"67","title":"北海道/稚内市","prefecture":"北海道","city":"稚内","address":"","city_url":"","lat":45.417236,"lng":141.677095,"pokemons":["アローラキュウコン","アローラロコン","ローカルActs北海道ページへ"],"detail_url":"https://local.pokemon.jp/manhole/desc/67/?is_modal=1","prefecture_site_url":"","first_seen":"2025-10-26T15:18:01Z","added_at":"2025-10-26T15:18:01Z","last_updated":"2025-10-27T02:17:05Z","status":"active"}
{"id":"68","title":"北海道/豊富町","prefecture":"北海道","city":"豊富","address":"北海道豊富町東1条6丁目","city_url":"","lat":45.103245,"lng":141.778643,"pokemons":["アローラロコン","ミルタンク","ローカルActs北海道ページへ"],"detail_url":"https://local.pokemon.jp/manhole/desc/68/?is_modal=1","prefecture_site_url":"","first_seen":"2025-10-26T15:18:03Z","added_at":"2025-10-26T15:18:03Z","last_updated":"2025-10-27T02:17:05Z","status":"active"}
{"id":"69","title":"北海道/紋別市","prefecture":"北海道","city":"紋別","address":"","city_url":"","lat":44.334641,"lng":143.372211,"pokemons":["アローラロコン","タマザラシ","ローカルActs北海道ページへ"],"detail_url":"https://local.pokemon.jp/manhole/desc/69/?is_modal=1","prefecture_site_url":"","first_seen":"2025-10-26T15:18:05Z","added_at":"2025-10-26T15:18:05Z","last_updated":"2025-10-27T02:17:05Z","status":"active"}
{"id":"70","title":"北海道/遠軽町","prefecture":"北海道","city":"遠軽","address":"北海道遠軽町野上150番地","city_url":"","lat":44.021878,"lng":143.497131,"pokemons":["アローラロコン","ユキメノコ","ローカルActs北海道ページへ"],"detail_url":"https://local.pokemon.jp/manhole/desc/70/?is_modal=1","prefecture_site_url":"","first_seen":"2025-10-26T15:18:06Z","added_at":"2025-10-26T15:18:06Z","last_updated":"2025-10-27T02:17:05Z","status":"active"}
{"id":"71","title":"北海道/大空町","prefecture":"北海道","city":"大空","address":"北海道大空町女満別本通1丁目","city_url":"","lat":43.915555,"lng":144.17137,"pokemons":["ムクホーク","ロコン","ローカルActs北海道ページへ"],"detail_url":"https://local.pokemon.jp/manhole/desc/71/?is_modal=1","prefecture_site_url":"","first_seen":"2025-10-26T15:18:07Z","added_at":"2025-10-26T15:18:07Z","last_updated":"2025-10-27T02:17:05Z","status":"active"}
{"id":"72","title":"北海道/新得町","prefecture":"北海道","city":"新得","address":"北海道新得町本通北1丁目","city_url":"","lat":43.082684,"lng":142.832927,"pokemons":["アローラロコン","ヒメグマ","ローカルActs北海道ページへ"],"detail_url":"https://local.pokemon.jp/manhole/desc/72/?is_modal=1","prefecture_site_url":"","first_seen":"2025-10-26T15:18:08Z","added_at":"2025-10-26T15:18:08Z","last_updated":"2025-10-27T02:17:05Z","status":"active"}
{"id":"73","title":"北海道/足寄町","prefecture":"北海道","city":"足寄","address":"北海道足寄町北1条1丁目1","city_url":"","lat":43.244229,"lng":143.546753,"pokemons":["アグノム","アローラロコン","エムリット","ユクシー","ローカルActs北海道ページへ"],"detail_url":"https://local.pokemon.jp/manhole/desc/73/?is_modal=1","prefecture_site_url":"","first_seen":"2025-10-26T15:18:09Z","added_at":"2025-10-26T15:18:09Z","last_updated":"2025-10-27T02:17:05Z","status":"active"}
{"id":"74","title":"鳥取県/鳥取市","prefecture":"鳥取県","city":"鳥取","address":"","city_url":"","lat":35.539668,"lng":134.237266,"pokemons":["アローラサンド","サンド","ミミロル","ローカルActs鳥取県ページへ"],"detail_url":"https://local.pokemon.jp/manhole/desc/74/?is_modal=1","prefecture_site_url":"","first_seen":"2025-10-26T15:18:10Z","added_at":"2025-10-26T15:18:10Z","last_updated":"2025-10-27T02:17:05Z","status":"active"}
{"id":"75","title":"鳥取県/米子市","prefecture":"鳥取県","city":"米子","address":"鳥取県米子市皆生温泉3丁目1番1号","city_url":"","lat":35.456258,"lng":133.361525,"pokemons":["カモネギ","サンド","スワンナ","ローカルActs鳥取県ページへ"],"detail_url":"https://local.pokemon.jp/manhole/desc/75/?is_modal=1","prefecture_site_url":"","first_seen":"2025-10-26T15:18:11Z","added_at":"2025-10-26T15:18:11Z","last_updated":"2025-10-27T02:17:05Z","status":"active"}
{"id":"76","title":"鳥取県/倉吉市","prefecture":"鳥取県","city":"倉吉","address":"","city_url":"","lat":35.454272,"lng":133.850116,"pokemons":["アローラサンド","サンド","ローカルActs鳥取県ページへ"],"detail_url":"https://local.pokemon.jp/manhole/desc/76/?is_modal=1","prefecture_site_url":"","first_seen":"2025-10-26T15:18:12Z","added_at":"2025-10-26T15:18:12Z","last_updated":"2025-10-27T02:17:05Z","status":"active"}
{"id":"77","title":"鳥取県/境港市","prefecture":"鳥取県","city":"境港","address":"","city_url":"","lat":35.521481,"lng":133.258356,"pokemons":["アローラサンド","クラブ","サンド","ローカルActs鳥取県ページへ"],"detail_url":"https://local.pokemon.jp/manhole/desc/77/?is_modal=1","prefecture_site_url":"","first_seen":"2025-10-26T15:18:13Z","added_at":"2025-10-26T15:18:13Z","last_updated":"2025-10-27T02:17:05Z","status":"active"}
{"id":"78","title":"鳥取県/岩美町","prefecture":"鳥取県","city":"岩美","address":"","city_url":"","lat":35.590938,"lng":134.321556,"pokemons":["サンド","ネイティオ","ローカルActs鳥取県ページへ"],"detail_url":"https://local.pokemon.jp/manhole/desc/78/?is_modal=1","prefecture_site_url":"","first_seen":"2025-10-26T15:18:14Z","added_at":"2025-10-26T15:18:14Z","last_updated":"2025-10-27T02:17:05Z","status":"active"}
{"id":"79","title":"鳥取県/若桜町","prefecture":"鳥取県","city":"若桜","address":"","city_url":"","lat":35.343951,"lng":134.400345,"pokemons":["アローラサンド","ユキカブリ","ローカルActs鳥取県ページへ"],"detail_url":"https://local.pokemon.jp/manhole/desc/79/?is_modal=1","prefecture_site_url":"","first_seen":"2025-10-26T15:18:15Z","added_at":"2025-10-26T15:18:15Z","last_updated":"2025-10-27T02:17:05Z","status":"active"}
{"id":"80","title":"鳥取県/三朝町","prefecture":"鳥取県","city":"三朝","address":"","city_url":"","lat":35.409324,"lng":133.894397,"pokemons":["アローラサンド","ケロマツ","サンド","ローカルActs鳥取県ページへ"],"detail_url":"https://local.pokemon.jp/manhole/desc/80/?is_modal=1","prefecture_site_url":"","first_seen":"2025-10-26T15:18:16Z","added_at":"2025-10-26T15:18:16Z","last_updated":"2025-10-27T02:17:05Z","status":"active"}
{"id":"81","title":"鳥取県/湯梨浜町","prefecture":"鳥取県","city":"湯梨浜","address":"","city_url":"","lat":35.478166,"lng":133.88401,"pokemons":["サンド","シェルダー","ローカルActs鳥取県ページへ"],"detail_url":"https://local.pokemon.jp/manhole/desc/81/?is_modal=1","prefecture_site_url":"","first_seen":"2025-10-26T15:18:17Z","added_at":"2025-10-26T15:18:17Z","last_updated":"2025-10-27T02:17:05Z","status":"active"}
{"id":"82","title":"鳥取県/琴浦町","prefecture":"鳥取県","city":"琴浦","address":"","city_url":"","lat":35.506942,"lng":133.661612,"pokemons":["アローラサンド","サンド","ローカルActs鳥取県ページへ"],"detail_url":"https://local.pokemon.jp/manhole/desc/82/?is_modal=1","prefecture_site_url":"","first_seen":"2025-10-26T15:18:18Z","added_at":"2025-10-26T15:18:18Z","last_updated":"2025-10-27T02:17:05Z","status":"active"}
{"id":"83","title":"鳥取県/大山町","prefecture":"鳥取県","city":"大山","address":"","city_url":"","lat":35.504584,"lng":133.502093,"pokemons":["アローラサンド","ヒトモシ","ローカルActs鳥取県ページへ"],"detail_url":"https://local.pokemon.jp/manhole/desc/83/?is_modal=1","prefecture_site_url":"","first_seen":"2025-10-26T15:18:19Z","added_at":"2025-10-26T15:18:19Z","last_updated":"2025-10-27T02:17:05Z","status":"active"}
{"id":"84","title":"鳥取県/南部町","prefecture":"鳥取県","city":"南部","address":"","city_url":"","lat":35.347474,"lng":133.423398,"pokemons":["アローラサンド","サンド","ナックラー","ローカルActs鳥取県ページへ"],"detail_url":"https://local.pokemon.jp/manhole/desc/84/?is_modal=1","prefecture_site_url":"","first_seen":"2025-10-26T15:18:20Z","added_at":"2025-10-26T15:18:20Z","last_updated":"2025-10-27T02:17:05Z","status":"active"}
{"id":"85","title":"鳥取県/伯耆町","prefecture":"鳥取県","city":"伯耆","address":"","city_url":"","lat":35.383395,"lng":133.458512,"pokemons":["アローラサンド","オニゴーリ","サンド","ローカルActs鳥取県ページへ"],"detail_url":"https://local.pokemon.jp/manhole/desc/85/?is_modal=1","prefecture_site_url":"","first_seen":"2025-10-26T15:18:21Z","added_at":"2025-10-26T15:18:21Z","last_updated":"2025-10-27T02:17:05Z","status":"active"}
{"id":"86","title":"鳥取県/日南町","prefecture":"鳥取県","city":"日南","address":"鳥取県日南町生山354番地2","city_url":"","lat":35.170524,"lng":133.31094,"pokemons":["イルミーゼ","サンド","バルビート","ローカルActs鳥取県ページへ"],"detail_url":"https://local.pokemon.jp/manhole/desc/86/?is_modal=1","prefecture_site_url":"","first_seen":"2025-10-26T15:18:22Z","added_at":"2025-10-26T15:18:22Z","last_updated":"2025-10-27T02:17:05Z","status":"active"}
{"id":"87","title":"鳥取県/日野町","prefecture":"鳥取県","city":"日野","address":"鳥取県日野町根雨170番地1","city_url":"","lat":35.24192,"lng":133.441049,"pokemons":["アローラサンド","サンド","チルット","ローカルActs鳥取県ページへ"],"detail_url":"https://local.pokemon.jp/manhole/desc/87/?is_modal=1","prefecture_site_url":"","first_seen":"2025-10-26T15:18:23Z","added_at":"2025-10-26T15:18:23Z","last_updated":"2025-10-27T02:17:05Z","status":"active"}
{"id":"88","title":"福島県/新地町","prefecture":"福島県","city":"新地","address":"福島県新地町駅前1丁目3番地","city_url":"","lat":37.878748,"lng":140.925027,"pokemons":["オドシシ","ラッキー","ローカルActs福島県ページへ"],"detail_url":"https://local.pokemon.jp/manhole/desc/88/?is_modal=1","prefecture_site_url":"","first_seen":"2025-10-26T15:18:24Z","added_at":"2025-10-26T15:18:24Z","last_updated":"2025-10-27T02:17:05Z","status":"active"}
{"id":"89","title":"福島県/相馬市","prefecture":"福島県","city":"相馬","address":"","city_url":"","lat":37.827708,"lng":140.963244,"pokemons":["ポニータ","ラッキー","ローカルActs福島県ページへ"],"detail_url":"https://local.pokemon.jp/manhole/desc/89/?is_modal=1","prefecture_site_url":"","first_seen":"2025-10-26T15:18:25Z","added_at":"2025-10-26T15:18:25Z","last_updated":"2025-10-27T02:17:05Z","status":"active"}
{"id":"90","title":"福島県/南相馬市","prefecture":"福島県","city":"南相馬","address":"福島県南相馬市原町区高見町2-30-1","city_url":"","lat":37.63577,"lng":140.983041,"pokemons":["ギャロップ","ラッキー","ローカルActs福島県ページへ"],"detail_url":"https://local.pokemon.jp/manhole/desc/90/?is_modal=1","prefecture_site_url":"","first_seen":"2025-10-26T15:18:26Z","added_at":"2025-10-26T15:18:26Z","last_updated":"2025-10-27T02:17:05Z","status":"active"}
{"id":"91","title":"福島県/浪江町","prefecture":"福島県","city":"浪江","address":"","city_url":"","lat":37.496395,"lng":141.000919,"pokemons":["ラッキー","ローカルActs福島県ページへ"],"detail_url":"https://local.pokemon.jp/manhole/desc/91/?is_modal=1","prefecture_site_url":"","first_seen":"2025-10-26T15:18:27Z","added_at":"2025-10-26T15:18:27Z","last_updated":"2025-10-27T02:17:05Z","status":"active"}
{"id":"92","title":"福島県/楢葉町","prefecture":"福島県","city":"楢葉","address":"","city_url":"","lat":37.2501442,"lng":140.9975789,"pokemons":["ラッキー","ラビフット","ローカルActs福島県ページへ"],"detail_url":"https://local.pokemon.jp/manhole/desc/92/?is_modal=1","prefecture_site_url":"","first_seen":"2025-10-26T15:18:28Z","added_at":"2025-10-26T15:18:28Z","last_updated":"2025-10-27T02:17:05Z","status":"active"}
{"id":"93","title":"福島県/いわき市","prefecture":"福島県","city":"いわき","address":"福島県いわき市四倉町字5-218-1","city_url":"","lat":37.1073084,"lng":140.9932743,"pokemons":["キレイハナ","ラッキー","ローカルActs福島県ページへ"],"detail_url":"https://local.pokemon.jp/manhole/desc/93/?is_modal=1","prefecture_site_url":"","first_seen":"2025-10-26T15:18:29Z","added_at":"2025-10-26T15:18:29Z","last_updated":"2025-10-27T02:17:05Z","status":"active"}
{"id":"94","title":"福島県/川俣町","prefecture":"福島県","city":"川俣","address":"","city_url":"","lat":37.667671,"lng":140.57675,"pokemons":["カラサリス","マユルド","ラッキー","ローカルActs福島県ページへ"],"detail_url":"https://local.pokemon.jp/manhole/desc/94/?is_modal=1","prefecture_site_url":"","first_seen":"2025-10-26T15:18:30Z","added_at":"2025-10-26T15:18:30Z","last_updated":"2025-10-27T02:17:05Z","status":"active"}
{"id":"95","title":"福島県/田村市","prefecture":"福島県","city":"田","address":"","city_url":"","lat":37.344423,"lng":140.674289,"pokemons":["ヘラクロス","ラッキー","ローカルActs福島県ページへ"],"detail_url":"https://local.pokemon.jp/manhole/desc/95/?is_modal=1","prefecture_site_url":"","first_seen":"2025-10-26T15:18:31Z","added_at":"2025-10-26T15:18:31Z","last_updated":"2025-10-27T02:17:05Z","status":"active"}
{"id":"96","title":"福島県/川内村","prefecture":"福島県","city":"川内","address":"","city_url":"","lat":37.329458,"lng":140.82162,"pokemons":["サシカマス","ヨワシ","ラッキー","ローカルActs福島県ページへ"],"detail_url":"https://local.pokemon.jp/manhole/desc/96/?is_modal=1","prefecture_site_url":"","first_seen":"2025-10-26T15:18:32Z","added_at":"2025-10-26T15:18:32Z","last_updated":"2025-10-27T02:17:05Z","status":"active"}
{"id":"97","title":"香川県/宇多津町","prefecture":"香川県","city":"宇多津","address":"香川県宇多津町浜一番丁4番地","city_url":"","lat":34.3134259,"lng":133.8075257,"pokemons":["ガラルヤドン","ヌオー","ローカルActs香川県ページへ"],"detail_url":"https://local.pokemon.jp/manhole/desc/97/?is_modal=1","prefecture_site_url":"","first_seen":"2025-10-26T15:18:33Z","added_at":"2025-10-26T15:18:33Z","last_updated":"2025-10-27T02:17:05Z","status":"active"}
{"id":"98","title":"東京都/町田市","prefecture":"東京都","city":"町田","address":"","city_url":"","lat":35.548108,"lng":139.45034,"pokemons":["フシギダネ"],"detail_url":"https://local.pokemon.jp/manhole/desc/98/?is_modal=1","prefecture_site_url":"","first_seen":"2025-10-26T15:18:34Z","added_at":"2025-10-26T15:18:34Z","last_updated":"2025-10-27T02:17:05Z","status":"active"}
{"id":"99","title":"東京都/町田市","prefecture":"東京都","city":"町田","address":"","city_url":"","lat":35.548171,"lng":139.4513,"pokemons":["ヒトカゲ"],"detail_url":"https://local.pokemon.jp/manhole/desc/99/?is_modal=1","prefecture_site_url":"","first_seen":"2025-10-26T15:18:35Z","added_at":"2025-10-26T15:18:35Z","last_updated":"2025-10-27T02:17:05Z","status":"active"}
{"id":"100","title":"東京都/町田市","prefecture":"東京都","city":"町田","address":"","city_url":"","lat":35.545302,"lng":139.45501,"pokemons":["ゼニガメ"],"detail_url":"https://local.pokemon.jp/manhole/desc/100/?is_modal=1","prefecture_site_url":"","first_seen":"2025-10-26T15:18:36Z","added_at":"2025-10-26T15:18:36Z","last_updated":"2025-10-27T02:17:05Z","status":"active"}
{"id":"101","title":"東京都/町田市","prefecture":"東京都","city":"町田","address":"","city_url":"","lat":35.546111,"lng":139.45436,"pokemons":["キャタピー","ナゾノクサ","ビードル"],"detail_url":"https://local.pokemon.jp/manhole/desc/101/?is_modal=1","prefecture_site_url":"","first_seen":"2025-10-26T15:18:36Z","added_at":"2025-10-26T15:18:36Z","last_updated":"2025-10-27T02:17:05Z","status":"active"}
{"id":"102","title":"東京都/町田市","prefecture":"東京都","city":"町田","address":"","city_url":"","lat":35.545645,"lng":139.45488,"pokemons":["コラッタ","ポッポ"],"detail_url":"https://local.pokemon.jp/manhole/desc/102/?is_modal=1","prefecture_site_url":"","first_seen":"2025-10-26T15:18:38Z","added_at":"2025-10-26T15:18:38Z","last_updated":"2025-10-27T02:17:05Z","status":"active"}
{"id":"103","title":"東京都/町田市","prefecture":"東京都","city":"町田","address":"","city_url":"","lat":35.546713,"lng":139.45398,"pokemons":["ニョロモ"],"detail_url":"https://local.pokemon.jp/manhole/desc/103/?is_modal=1","prefecture_site_url":"","first_seen":"2025-10-26T15:18:39Z","added_at":"2025-10-26T15:18:39Z","last_updated":"2025-10-27T02:17:05Z","status":"active"}
{"id":"104","title":"滋賀県/大津市","prefecture":"滋賀県","city":"大津","address":"","city_url":"","lat":35.0102,"lng":135.8699,"pokemons":["ギャラドス"],"detail_url":"https://local.pokemon.jp/manhole/desc/104/?is_modal=1","prefecture_site_url":"","first_seen":"2025-10-26T15:18:39Z","added_at":"2025-10-26T15:18:39Z","last_updated":"2025-10-27T02:17:05Z","status":"active"}
{"id":"105","title":"滋賀県/大津市","prefecture":"滋賀県","city":"大津","address":"","city_url":"","lat":34.9981,"lng":135.8946,"pokemons":["ギャラドス"],"detail_url":"https://local.pokemon.jp/manhole/desc/105/?is_modal=1","prefecture_site_url":"","first_seen":"2025-10-26T15:18:40Z","added_at":"2025-10-26T15:18:40Z","last_updated":"2025-10-27T02:17:05Z","status":"active"}
{"id":"106","title":"鳥取県/智頭町","prefecture":"鳥取県","city":"智頭","address":"","city_url":"","lat":35.265428,"lng":134.226103,"pokemons":["ウソッキー","サンド","サンドパン","ローカルActs鳥取県ページへ"],"detail_url":"https://local.pokemon.jp/manhole/desc/106/?is_modal=1","prefecture_site_url":"","first_seen":"2025-10-26T15:18:41Z","added_at":"2025-10-26T15:18:41Z","last_updated":"2025-10-27T02:17:05Z","status":"active"}
{"id":"107","title":"鳥取県/八頭町","prefecture":"鳥取県","city":"八頭","address":"","city_url":"","lat":35.366456,"lng":134.339426,"pokemons":["アローラサンド","アローラサンドパン","ローカルActs鳥取県ページへ"],"detail_url":"https://local.pokemon.jp/manhole/desc/107/?is_modal=1","prefecture_site_url":"","first_seen":"2025-10-26T15:18:42Z","added_at":"2025-10-26T15:18:42Z","last_updated":"2025-10-27T02:17:05Z","status":"active"}
{"id":"108","title":"鳥取県/北栄町","prefecture":"鳥取県","city":"北栄","address":"","city_url":"","lat":35.49924,"lng":133.81794,"pokemons":["アローラサンド","サンド","ローカルActs鳥取県ページへ"],"detail_url":"https://local.pokemon.jp/manhole/desc/108/?is_modal=1","prefecture_site_url":"","first_seen":"2025-10-26T15:18:43Z","added_at":"2025-10-26T15:18:43Z","last_updated":"2025-10-27T02:17:05Z","status":"active"}
{"id":"109","title":"鳥取県/日吉津村","prefecture":"鳥取県","city":"日吉津","address":"鳥取県日吉津村大字日吉津930番地","city_url":"","lat":35.441126,"lng":133.379578,"pokemons":["サンド","メタモン","ローカルActs鳥取県ページへ"],"detail_url":"https://local.pokemon.jp/manhole/desc/109/?is_modal=1","prefecture_site_url":"","first_seen":"2025-10-26T15:18:44Z","added_at":"2025-10-26T15:18:44Z","last_updated":"2025-10-27T02:17:05Z","status":"active"}
{"id":"110","title":"鳥取県/江府町","prefecture":"鳥取県","city":"江府","address":"","city_url":"","lat":35.295841,"lng":133.474089,"pokemons":["アローラサンド","サンド","ローカルActs鳥取県ページへ"],"detail_url":"https://local.pokemon.jp/manhole/desc/110/?is_modal=1","prefecture_site_url":"","first_seen":"2025-10-26T15:18:46Z","added_at":"2025-10-26T15:18:46Z","last_updated":"2025-10-27T02:17:05Z","status":"active"}
{"id":"111","title":"宮崎県/宮崎市","prefecture":"宮崎県","city":"宮崎","address":"","city_url":"","lat":31.807505,"lng":131.457839,"pokemons":["ナッシー","ポワルン","ローカルActs宮崎県ページへ"],"detail_url":"https://local.pokemon.jp/manhole/desc/111/?is_modal=1","prefecture_site_url":"","first_seen":"2025-10-26T15:18:46Z","added_at":"2025-10-26T15:18:46Z","last_updated":"2025-10-27T02:17:05Z","status":"active"}
{"id":"112","title":"宮崎県/都城市","prefecture":"宮崎県","city":"都城","address":"","city_url":"","lat":31.725213,"lng":131.0661894,"pokemons":["アローラナッシー","メテノ","ローカルActs宮崎県ページへ"],"detail_url":"https://local.pokemon.jp/manhole/desc/112/?is_modal=1","prefecture_site_url":"","first_seen":"2025-10-26T15:18:47Z","added_at":"2025-10-26T15:18:47Z","last_updated":"2025-10-27T02:17:05Z","status":"active"}
{"id":"113","title":"宮崎県/延岡市","prefecture":"宮崎県","city":"延岡","address":"","city_url":"","lat":32.684711,"lng":131.801103,"pokemons":["アローラナッシー","ナッシー","ローカルActs宮崎県ページへ"],"detail_url":"https://local.pokemon.jp/manhole/desc/113/?is_modal=1","prefecture_site_url":"","first_seen":"2025-10-26T15:18:48Z","added_at":"2025-10-26T15:18:48Z","last_updated":"2025-10-27T02:17:05Z","status":"active"}
{"id":"114","title":"宮崎県/日南市","prefecture":"宮崎県","city":"日南","address":"","city_url":"","lat":31.58793,"lng":131.4017058,"pokemons":["アローラナッシー","ダイノーズ","ローカルActs宮崎県ページへ"],"detail_url":"https://local.pokemon.jp/manhole/desc/114/?is_modal=1","prefecture_site_url":"","first_seen":"2025-10-26T15:18:49Z","added_at":"2025-10-26T15:18:49Z","last_updated":"2025-10-27T02:17:05Z","status":"active"}
{"id":"115","title":"宮崎県/小林市","prefecture":"宮崎県","city":"小林","address":"宮崎県小林市野尻町東麓5160番地","city_url":"","lat":31.95742,"lng":131.12641,"pokemons":["ナッシー","モクロー","ローカルActs宮崎県ページへ"],"detail_url":"https://local.pokemon.jp/manhole/desc/115/?is_modal=1","prefecture_site_url":"","first_seen":"2025-10-26T15:18:50Z","added_at":"2025-10-26T15:18:50Z","last_updated":"2025-11-08T07:44:02Z","status":"active"}
{"id":"116","title":"宮崎県/日向市","prefecture":"宮崎県","city":"日向","address":"","city_url":"","lat":32.4253924,"lng":131.6277364,"pokemons":["オドリドリ","ナッシー","ローカルActs宮崎県ページへ"],"detail_url":"https://local.pokemon.jp/manhole/desc/116/?is_modal=1","prefecture_site_url":"","first_seen":"2025-10-26T15:18:51Z","added_at":"2025-10-26T15:18:51Z","last_updated":"2025-10-27T02:17:05Z","status":"active"}
{"id":"117","title":"宮崎県/串間市","prefecture":"宮崎県","city":"串間","address":"","city_url":"","lat":31.36627,"lng":131.332809,"pokemons":["ガラルポニータ","ナッシー","ローカルActs宮崎県ページへ"],"detail_url":"https://local.pokemon.jp/manhole/desc/117/?is_modal=1","prefecture_site_url":"","first_seen":"2025-10-26T15:18:52Z","added_at":"2025-10-26T15:18:52Z","last_updated":"2025-10-27T02:17:05Z","status":"active"}
{"id":"118","title":"宮崎県/西都市","prefecture":"宮崎県","city":"西都","address":"宮崎県西都市小野崎1丁目77番地","city_url":"","lat":32.106625,"lng":131.404508,"pokemons":["キマワリ","ナッシー","ローカルActs宮崎県ページへ"],"detail_url":"https://local.pokemon.jp/manhole/desc/118/?is_modal=1","prefecture_site_url":"","first_seen":"2025-10-26T15:18:53Z","added_at":"2025-10-26T15:18:53Z","last_updated":"2025-10-27T02:17:05Z","status":"active"}
{"id":"119","title":"宮崎県/えびの市","prefecture":"宮崎県","city":"えびの","address":"宮崎県えびの市大字永山1006番地1","city_url":"","lat":32.050305,"lng":130.80595,"pokemons":["コータス","ナッシー","ローカルActs宮崎県ページへ"],"detail_url":"https://local.pokemon.jp/manhole/desc/119/?is_modal=1","prefecture_site_url":"","first_seen":"2025-10-26T15:18:54Z","added_at":"2025-10-26T15:18:54Z","last_updated":"2025-10-27T02:17:05Z","status":"active"}
{"id":"120","title":"宮城県/白石市","prefecture":"宮城県","city":"白石","address":"","city_url":"","lat":38.002511,"lng":140.61735,"pokemons":["クスネ","ラプラス","ローカルActs宮城県ページへ"],"detail_url":"https://local.pokemon.jp/manhole/desc/120/?is_modal=1","prefecture_site_url":"","first_seen":"2025-10-26T15:18:55Z","added_at":"2025-10-26T15:18:55Z","last_updated":"2025-10-27T02:17:05Z","status":"active"}
{"id":"121","title":"宮城県/角田市","prefecture":"宮城県","city":"角田","address":"","city_url":"","lat":37.968694,"lng":140.807077,"pokemons":["ラティアス","ラプラス","ローカルActs宮城県ページへ"],"detail_url":"https://local.pokemon.jp/manhole/desc/121/?is_modal=1","prefecture_site_url":"","first_seen":"2025-10-26T15:18:56Z","added_at":"2025-10-26T15:18:56Z","last_updated":"2025-10-27T02:17:05Z","status":"active"}
{"id":"122","title":"宮城県/登米市","prefecture":"宮城県","city":"登米","address":"","city_url":"","lat":38.616649,"lng":141.235491,"pokemons":["ハスボー","ラプラス","ローカルActs宮城県ページへ"],"detail_url":"https://local.pokemon.jp/manhole/desc/122/?is_modal=1","prefecture_site_url":"","first_seen":"2025-10-26T15:18:57Z","added_at":"2025-10-26T15:18:57Z","last_updated":"2025-10-27T02:17:05Z","status":"active"}
{"id":"123","title":"宮城県/栗原市","prefecture":"宮城県","city":"栗原","address":"","city_url":"","lat":38.794479,"lng":140.844403,"pokemons":["コアルヒー","ラプラス","ローカルActs宮城県ページへ"],"detail_url":"https://local.pokemon.jp/manhole/desc/123/?is_modal=1","prefecture_site_url":"","first_seen":"2025-10-26T15:18:58Z","added_at":"2025-10-26T15:18:58Z","last_updated":"2025-10-27T02:17:05Z","status":"active"}
{"id":"124","title":"宮城県/大崎市","prefecture":"宮城県","city":"大崎","address":"宮城県大崎市古川駅前大通１丁目５　古川駅前","city_url":"","lat":38.571356,"lng":140.967465,"pokemons":["オニスズメ","ダグトリオ","ラプラス","ローカルActs宮城県ページへ"],"detail_url":"https://local.pokemon.jp/manhole/desc/124/?is_modal=1","prefecture_site_url":"","first_seen":"2025-10-26T15:18:59Z","added_at":"2025-10-26T15:18:59Z","last_updated":"2025-10-27T02:17:05Z","status":"active"}
{"id":"125","title":"宮城県/富谷市","prefecture":"宮城県","city":"富谷","address":"","city_url":"","lat":38.398336,"lng":140.8875,"pokemons":["ブルー","ラプラス","ローカルActs宮城県ページへ"],"detail_url":"https://local.pokemon.jp/manhole/desc/125/?is_modal=1","prefecture_site_url":"","first_seen":"2025-10-26T15:19:00Z","added_at":"2025-10-26T15:19:00Z","last_updated":"2025-10-27T02:17:05Z","status":"active"}
{"id":"126","title":"宮城県/蔵王町","prefecture":"宮城県","city":"蔵王","address":"","city_url":"","lat":38.123663,"lng":140.577192,"pokemons":["ユキノオー","ラプラス","ローカルActs宮城県ページへ"],"detail_url":"https://local.pokemon.jp/manhole/desc/126/?is_modal=1","prefecture_site_url":"","first_seen":"2025-10-26T15:19:01Z","added_at":"2025-10-26T15:19:01Z","last_updated":"2025-10-27T02:17:05Z","status":"active"}
{"id":"127","title":"宮城県/七ヶ宿町","prefecture":"宮城県","city":"七ヶ宿","address":"","city_url":"","lat":37.982523,"lng":140.46662,"pokemons":["ビーダル","ラプラス","ローカルActs宮城県ページへ"],"detail_url":"https://local.pokemon.jp/manhole/desc/127/?is_modal=1","prefecture_site_url":"","first_seen":"2025-10-26T15:19:03Z","added_at":"2025-10-26T15:19:03Z","last_updated":"2025-10-27T02:17:05Z","status":"active"}
{"id":"128","title":"宮城県/大河原町","prefecture":"宮城県","city":"大河原","address":"","city_url":"","lat":38.0485032,"lng":140.738089,"pokemons":["チェリム","ラプラス","ローカルActs宮城県ページへ"],"detail_url":"https://local.pokemon.jp/manhole/desc/128/?is_modal=1","prefecture_site_url":"","first_seen":"2025-10-26T15:19:04Z","added_at":"2025-10-26T15:19:04Z","last_updated":"2025-10-27T02:17:05Z","status":"active"}
{"id":"129","title":"宮城県/村田町","prefecture":"宮城県","city":"村田","address":"","city_url":"","lat":38.119071,"lng":140.717821,"pokemons":["ベロベルト","ラプラス","ローカルActs宮城県ページへ"],"detail_url":"https://local.pokemon.jp/manhole/desc/129/?is_modal=1","prefecture_site_url":"","first_seen":"2025-10-26T15:19:05Z","added_at":"2025-10-26T15:19:05Z","last_updated":"2025-10-27T02:17:05Z","status":"active"}
{"id":"130","title":"宮城県/柴田町","prefecture":"宮城県","city":"柴田","address":"宮城県柴田町船岡中央1丁目1-1","city_url":"","lat":38.059143,"lng":140.768239,"pokemons":["フラベベ","ラプラス","ローカルActs宮城県ページへ"],"detail_url":"https://local.pokemon.jp/manhole/desc/130/?is_modal=1","prefecture_site_url":"","first_seen":"2025-10-26T15:19:06Z","added_at":"2025-10-26T15:19:06Z","last_updated":"2025-10-27T02:17:05Z","status":"active"}
{"id":"131","title":"宮城県/川崎町","prefecture":"宮城県","city":"川崎","address":"","city_url":"","lat":38.177534,"lng":140.643653,"pokemons":["ラプラス","ローカルActs宮城県ページへ"],"detail_url":"https://local.pokemon.jp/manhole/desc/131/?is_modal=1","prefecture_site_url":"","first_seen":"2025-10-26T15:19:07Z","added_at":"2025-10-26T15:19:07Z","last_updated":"2025-10-27T02:17:05Z","status":"active"}
{"id":"132","title":"宮城県/丸森町","prefecture":"宮城県","city":"丸森","address":"","city_url":"","lat":37.913873,"lng":140.762531,"pokemons":["ニャスパー","ニャース","ラプラス","ローカルActs宮城県ページへ"],"detail_url":"https://local.pokemon.jp/manhole/desc/132/?is_modal=1","prefecture_site_url":"","first_seen":"2025-10-26T15:19:08Z","added_at":"2025-10-26T15:19:08Z","last_updated":"2025-10-27T02:17:05Z","status":"active"}
{"id":"133","title":"宮城県/大和町","prefecture":"宮城県","city":"大和","address":"","city_url":"","lat":38.437364,"lng":140.885648,"pokemons":["タマゲタケ","ドダイトス","ラプラス","ローカルActs宮城県ページへ"],"detail_url":"https://local.pokemon.jp/manhole/desc/133/?is_modal=1","prefecture_site_url":"","first_seen":"2025-10-26T15:19:09Z","added_at":"2025-10-26T15:19:09Z","last_updated":"2025-10-27T02:17:05Z","status":"active"}
{"id":"134","title":"宮城県/大郷町","prefecture":"宮城県","city":"大郷","address":"","city_url":"","lat":38.424016,"lng":140.992673,"pokemons":["チュリネ","ラプラス","ローカルActs宮城県ページへ"],"detail_url":"https://local.pokemon.jp/manhole/desc/134/?is_modal=1","prefecture_site_url":"","first_seen":"2025-10-26T15:19:10Z","added_at":"2025-10-26T15:19:10Z","last_updated":"2025-10-27T02:17:05Z","status":"active"}
{"id":"135","title":"宮城県/大衡村","prefecture":"宮城県","city":"大衡","address":"","city_url":"","lat":38.46943814,"lng":140.8902292,"pokemons":["プルリル","ラブカス","ラプラス","ローカルActs宮城県ページへ"],"detail_url":"https://local.pokemon.jp/manhole/desc/135/?is_modal=1","prefecture_site_url":"","first_seen":"2025-10-26T15:19:11Z","added_at":"2025-10-26T15:19:11Z","last_updated":"2025-10-27T02:17:05Z","status":"active"}
{"id":"136","title":"宮城県/色麻町","prefecture":"宮城県","city":"色麻","address":"","city_url":"","lat":38.530136,"lng":140.86142,"pokemons":["ハスブレロ","ラプラス","ローカルActs宮城県ページへ"],"detail_url":"https://local.pokemon.jp/manhole/desc/136/?is_modal=1","prefecture_site_url":"","first_seen":"2025-10-26T15:19:12Z","added_at":"2025-10-26T15:19:12Z","last_updated":"2025-10-27T02:17:05Z","status":"active"}
{"id":"137","title":"宮城県/加美町","prefecture":"宮城県","city":"加美","address":"","city_url":"","lat":38.57215,"lng":140.72859,"pokemons":["ラプラス","ロゼリア","ローカルActs宮城県ページへ"],"detail_url":"https://local.pokemon.jp/manhole/desc/137/?is_modal=1","prefecture_site_url":"","first_seen":"2025-10-26T15:19:13Z","added_at":"2025-10-26T15:19:13Z","last_updated":"2025-10-27T02:17:05Z","status":"active"}
{"id":"138","title":"宮城県/涌谷町","prefecture":"宮城県","city":"涌谷","address":"","city_url":"","lat":38.5392702,"lng":141.1267433,"pokemons":["バンバドロ","ラプラス","ローカルActs宮城県ページへ"],"detail_url":"https://local.pokemon.jp/manhole/desc/138/?is_modal=1","prefecture_site_url":"","first_seen":"2025-10-26T15:19:14Z","added_at":"2025-10-26T15:19:14Z","last_updated":"2025-10-27T02:17:05Z","status":"active"}
{"id":"139","title":"宮城県/美里町","prefecture":"宮城県","city":"美里","address":"","city_url":"","lat":38.489061,"lng":141.133053,"pokemons":["ドードリオ","ドードー","ラプラス","ローカルActs宮城県ページへ"],"detail_url":"https://local.pokemon.jp/manhole/desc/139/?is_modal=1","prefecture_site_url":"","first_seen":"2025-10-26T15:19:15Z","added_at":"2025-10-26T15:19:15Z","last_updated":"2025-10-27T02:17:05Z","status":"active"}
{"id":"140","title":"北海道/苫小牧市","prefecture":"北海道","city":"苫小牧","address":"北海道苫小牧市末広町3丁目1","city_url":"","lat":42.635755,"lng":141.61009,"pokemons":["キュウコン","ロコン","ローカルActs北海道ページへ"],"detail_url":"https://local.pokemon.jp/manhole/desc/140/?is_modal=1","prefecture_site_url":"","first_seen":"2025-10-26T15:19:16Z","added_at":"2025-10-26T15:19:16Z","last_updated":"2025-10-27T02:17:05Z","status":"active"}
{"id":"141","title":"北海道/三笠市","prefecture":"北海道","city":"三笠","address":"北海道三笠市幾春別錦町1-212-1","city_url":"","lat":43.2613165,"lng":141.9626673,"pokemons":["オムナイト","ズガイドス","ロコン","ローカルActs北海道ページへ"],"detail_url":"https://local.pokemon.jp/manhole/desc/141/?is_modal=1","prefecture_site_url":"","first_seen":"2025-10-26T15:19:17Z","added_at":"2025-10-26T15:19:17Z","last_updated":"2025-10-27T02:17:05Z","status":"active"}
{"id":"142","title":"北海道/上富良野町","prefecture":"北海道","city":"上富良野","address":"","city_url":"","lat":43.462246,"lng":142.479068,"pokemons":["アローラロコン","エネコロロ","ローカルActs北海道ページへ"],"detail_url":"https://local.pokemon.jp/manhole/desc/142/?is_modal=1","prefecture_site_url":"","first_seen":"2025-10-26T15:19:18Z","added_at":"2025-10-26T15:19:18Z","last_updated":"2025-10-27T02:17:05Z","status":"active"}
{"id":"143","title":"北海道/剣淵町","prefecture":"北海道","city":"剣淵","address":"","city_url":"","lat":44.1000303,"lng":142.3593096,"pokemons":["アローラロコン","ヒトツキ","ローカルActs北海道ページへ"],"detail_url":"https://local.pokemon.jp/manhole/desc/143/?is_modal=1","prefecture_site_url":"","first_seen":"2025-10-26T15:19:20Z","added_at":"2025-10-26T15:19:20Z","last_updated":"2025-10-27T02:17:05Z","status":"active"}
{"id":"144","title":"新潟県/小千谷市","prefecture":"新潟県","city":"小千谷","address":"新潟県小千谷市城内2-7-5","city_url":"","lat":37.314216,"lng":138.794792,"pokemons":["コイキング"],"detail_url":"https://local.pokemon.jp/manhole/desc/144/?is_modal=1","prefecture_site_url":"","first_seen":"2025-10-26T15:19:21Z","added_at":"2025-10-26T15:19:21Z","last_updated":"2025-10-27T02:17:05Z","status":"active"}
{"id":"145","title":"新潟県/小千谷市","prefecture":"新潟県","city":"小千谷","address":"","city_url":"","lat":37.309883,"lng":138.812939,"pokemons":["コイキング"],"detail_url":"https://local.pokemon.jp/manhole/desc/145/?is_modal=1","prefecture_site_url":"","first_seen":"2025-10-26T15:19:22Z","added_at":"2025-10-26T15:19:22Z","last_updated":"2025-10-27T02:17:05Z","status":"active"}
{"id":"146","title":"新潟県/小千谷市","prefecture":"新潟県","city":"小千谷","address":"新潟県小千谷市小千谷市城内1-8-22","city_url":"","lat":37.311028,"lng":138.795653,"pokemons":["コイキング","ヒンバス"],"detail_url":"https://local.pokemon.jp/manhole/desc/146/?is_modal=1","prefecture_site_url":"","first_seen":"2025-10-26T15:19:23Z","added_at":"2025-10-26T15:19:23Z","last_updated":"2025-10-27T02:17:05Z","status":"active"}
{"id":"147","title":"新潟県/小千谷市","prefecture":"新潟県","city":"小千谷","address":"","city_url":"","lat":37.314301,"lng":138.7835,"pokemons":["コイキング","ピジョン"],"detail_url":"https://local.pokemon.jp/manhole/desc/147/?is_modal=1","prefecture_site_url":"","first_seen":"2025-10-26T15:19:24Z","added_at":"2025-10-26T15:19:24Z","last_updated":"2025-10-27T02:17:05Z","status":"active"}
{"id":"148","title":"奈良県/斑鳩町","prefecture":"奈良県","city":"斑鳩","address":"奈良県斑鳩町興留7丁目3番地内","city_url":"","lat":34.60189,"lng":135.73917,"pokemons":["ドータクン","バオッキー"],"detail_url":"https://local.pokemon.jp/manhole/desc/148/?is_modal=1","prefecture_site_url":"","first_seen":"2025-10-26T15:19:25Z","added_at":"2025-10-26T15:19:25Z","last_updated":"2025-10-27T02:17:05Z","status":"active"}
{"id":"149","title":"奈良県/斑鳩町","prefecture":"奈良県","city":"斑鳩","address":"奈良県斑鳩町興留5丁目5番28号","city_url":"","lat":34.60474,"lng":135.7376,"pokemons":["ガーディ","マダツボミ"],"detail_url":"https://local.pokemon.jp/manhole/desc/149/?is_modal=1","prefecture_site_url":"","first_seen":"2025-10-26T15:19:26Z","added_at":"2025-10-26T15:19:26Z","last_updated":"2025-10-27T02:17:05Z","status":"active"}
{"id":"150","title":"奈良県/斑鳩町","prefecture":"奈良県","city":"斑鳩","address":"奈良県斑鳩町興留2丁目1番地内","city_url":"","lat":34.60827,"lng":135.73769,"pokemons":["チリーン","ブビィ"],"detail_url":"https://local.pokemon.jp/manhole/desc/150/?is_modal=1","prefecture_site_url":"","first_seen":"2025-10-26T15:19:27Z","added_at":"2025-10-26T15:19:27Z","last_updated":"2025-10-27T02:17:05Z","status":"active"}
{"id":"151","title":"奈良県/斑鳩町","prefecture":"奈良県","city":"斑鳩","address":"奈良県斑鳩町法隆寺南1丁目2番地内","city_url":"","lat":34.60826,"lng":135.73755,"pokemons":["シキジカ","ヒノヤコマ"],"detail_url":"https://local.pokemon.jp/manhole/desc/151/?is_modal=1","prefecture_site_url":"","first_seen":"2025-10-26T15:19:29Z","added_at":"2025-10-26T15:19:29Z","last_updated":"2025-10-27T02:17:05Z","status":"active"}
{"id":"152","title":"奈良県/斑鳩町","prefecture":"奈良県","city":"斑鳩","address":"奈良県斑鳩町法隆寺1丁目8番25号","city_url":"","lat":34.60983,"lng":135.73529,"pokemons":["エンテイ"],"detail_url":"https://local.pokemon.jp/manhole/desc/152/?is_modal=1","prefecture_site_url":"","first_seen":"2025-10-26T15:19:30Z","added_at":"2025-10-26T15:19:30Z","last_updated":"2025-10-27T02:17:05Z","status":"active"}
{"id":"153","title":"東京都/小笠原村","prefecture":"東京都","city":"小笠原","address":"","city_url":"","lat":27.094863,"lng":142.194033,"pokemons":["フシギバナ"],"detail_url":"https://local.pokemon.jp/manhole/desc/153/?is_modal=1","prefecture_site_url":"","first_seen":"2025-10-26T15:19:31Z","added_at":"2025-10-26T15:19:31Z","last_updated":"2025-10-27T02:17:05Z","status":"active"}
{"id":"154","title":"東京都/小笠原村","prefecture":"東京都","city":"小笠原","address":"","city_url":"","lat":27.094708,"lng":142.193279,"pokemons":["リザードン"],"detail_url":"https://local.pokemon.jp/manhole/desc/154/?is_modal=1","prefecture_site_url":"","first_seen":"2025-10-26T15:19:32Z","added_at":"2025-10-26T15:19:32Z","last_updated":"2025-10-27T02:17:05Z","status":"active"}
{"id":"155","title":"東京都/小笠原村","prefecture":"東京都","city":"小笠原","address":"","city_url":"","lat":27.094596,"lng":142.192781,"pokemons":["カメックス"],"detail_url":"https://local.pokemon.jp/manhole/desc/155/?is_modal=1","prefecture_site_url":"","first_seen":"2025-10-26T15:19:33Z","added_at":"2025-10-26T15:19:33Z","last_updated":"2025-10-27T02:17:05Z","status":"active"}
{"id":"156","title":"東京都/小笠原村","prefecture":"東京都","city":"小笠原","address":"","city_url":"","lat":27.09448,"lng":142.19235,"pokemons":["ミュウ"],"detail_url":"https://local.pokemon.jp/manhole/desc/156/?is_modal=1","prefecture_site_url":"","first_seen":"2025-10-26T15:19:34Z","added_at":"2025-10-26T15:19:34Z","last_updated":"2025-10-27T02:17:05Z","status":"active"}
{"id":"157","title":"青森県/八戸市","prefecture":"青森県","city":"八戸","address":"","city_url":"","lat":40.537937,"lng":141.558034,"pokemons":["イシツブテ","キャモメ"],"detail_url":"https://local.pokemon.jp/manhole/desc/157/?is_modal=1","prefecture_site_url":"","first_seen":"2025-10-26T15:19:35Z","added_at":"2025-10-26T15:19:35Z","last_updated":"2025-10-27T02:17:05Z","status":"active"}
{"id":"158","title":"青森県/階上町","prefecture":"青森県","city":"階上","address":"","city_url":"","lat":40.458437,"lng":141.608335,"pokemons":["ナマコブシ","バチンウニ","ユキハミ"],"detail_url":"https://local.pokemon.jp/manhole/desc/158/?is_modal=1","prefecture_site_url":"","first_seen":"2025-10-26T15:19:36Z","added_at":"2025-10-26T15:19:36Z","last_updated":"2025-10-27T02:17:05Z","status":"active"}
{"id":"159","title":"京都府/京都市","prefecture":"京都府","city":"京都","address":"","city_url":"","lat":35.011863,"lng":135.678745,"pokemons":["ホウオウ"],"detail_url":"https://local.pokemon.jp/manhole/desc/159/?is_modal=1","prefecture_site_url":"","first_seen":"2025-10-26T15:19:37Z","added_at":"2025-10-26T15:19:37Z","last_updated":"2025-10-27T02:17:05Z","status":"active"}
{"id":"160","title":"京都府/京都市","prefecture":"京都府","city":"京都","address":"","city_url":"","lat":35.00337,"lng":135.780573,"pokemons":["ピィ","ピチュー","ププリン"],"detail_url":"https://local.pokemon.jp/manhole/desc/160/?is_modal=1","prefecture_site_url":"","first_seen":"2025-10-26T15:19:37Z","added_at":"2025-10-26T15:19:37Z","last_updated":"2025-10-27T02:17:05Z","status":"active"}
{"id":"161","title":"京都府/京都市","prefecture":"京都府","city":"京都","address":"","city_url":"","lat":34.994784,"lng":135.714323,"pokemons":["ダーテング","チコリータ"],"detail_url":"https://local.pokemon.jp/manhole/desc/161/?is_modal=1","prefecture_site_url":"","first_seen":"2025-10-26T15:19:39Z","added_at":"2025-10-26T15:19:39Z","last_updated":"2025-10-27T02:17:05Z","status":"active"}
{"id":"162","title":"京都府/京都市","prefecture":"京都府","city":"京都","address":"","city_url":"","lat":35.014858,"lng":135.782013,"pokemons":["ヒノアラシ","ヒヒダルマ"],"detail_url":"https://local.pokemon.jp/manhole/desc/162/?is_modal=1","prefecture_site_url":"","first_seen":"2025-10-26T15:19:39Z","added_at":"2025-10-26T15:19:39Z","last_updated":"2025-10-27T02:17:05Z","status":"active"}
{"id":"163","title":"京都府/京都市","prefecture":"京都府","city":"京都","address":"","city_url":"","lat":34.987804,"lng":135.743538,"pokemons":["マリルリ","ワニノコ"],"detail_url":"https://local.pokemon.jp/manhole/desc/163/?is_modal=1","prefecture_site_url":"","first_seen":"2025-10-26T15:19:41Z","added_at":"2025-10-26T15:19:41Z","last_updated":"2025-10-27T02:17:05Z","status":"active"}
{"id":"164","title":"宮崎県/三股町","prefecture":"宮崎県","city":"三股","address":"","city_url":"","lat":31.73375,"lng":131.120309,"pokemons":["コロモリ","ナッシー","ローカルActs宮崎県ページへ"],"detail_url":"https://local.pokemon.jp/manhole/desc/164/?is_modal=1","prefecture_site_url":"","first_seen":"2025-10-26T15:19:42Z","added_at":"2025-10-26T15:19:42Z","last_updated":"2025-10-27T02:17:05Z","status":"active"}
{"id":"165","title":"宮崎県/高鍋町","prefecture":"宮崎県","city":"高鍋","address":"","city_url":"","lat":32.115956,"lng":131.532841,"pokemons":["アローラナッシー","アローラライチュウ","ローカルActs宮崎県ページへ"],"detail_url":"https://local.pokemon.jp/manhole/desc/165/?is_modal=1","prefecture_site_url":"","first_seen":"2025-10-26T15:19:43Z","added_at":"2025-10-26T15:19:43Z","last_updated":"2025-10-27T02:17:05Z","status":"active"}
{"id":"166","title":"宮崎県/新富町","prefecture":"宮崎県","city":"新富","address":"","city_url":"","lat":32.073902,"lng":131.495719,"pokemons":["アローラナッシー","マクノシタ","ローカルActs宮崎県ページへ"],"detail_url":"https://local.pokemon.jp/manhole/desc/166/?is_modal=1","prefecture_site_url":"","first_seen":"2025-10-26T15:19:44Z","added_at":"2025-10-26T15:19:44Z","last_updated":"2025-10-27T02:17:05Z","status":"active"}
{"id":"167","title":"宮崎県/木城町","prefecture":"宮崎県","city":"木城","address":"","city_url":"","lat":32.1682457,"lng":131.4782857,"pokemons":["ナッシー","メタモン","ローカルActs宮崎県ページへ"],"detail_url":"https://local.pokemon.jp/manhole/desc/167/?is_modal=1","prefecture_site_url":"","first_seen":"2025-10-26T15:19:45Z","added_at":"2025-10-26T15:19:45Z","last_updated":"2025-10-27T02:17:05Z","status":"active"}
{"id":"168","title":"宮崎県/川南町","prefecture":"宮崎県","city":"川南","address":"宮崎県川南町大字平田2386番地3","city_url":"","lat":32.191491,"lng":131.528984,"pokemons":["ナッシー","ヌマクロー","ローカルActs宮崎県ページへ"],"detail_url":"https://local.pokemon.jp/manhole/desc/168/?is_modal=1","prefecture_site_url":"","first_seen":"2025-10-26T15:19:46Z","added_at":"2025-10-26T15:19:46Z","last_updated":"2025-10-27T02:17:05Z","status":"active"}
{"id":"169","title":"宮崎県/都農町","prefecture":"宮崎県","city":"都農","address":"","city_url":"","lat":32.2609016,"lng":131.5575768,"pokemons":["アローラナッシー","ブイゼル","ローカルActs宮崎県ページへ"],"detail_url":"https://local.pokemon.jp/manhole/desc/169/?is_modal=1","prefecture_site_url":"","first_seen":"2025-10-26T15:19:47Z","added_at":"2025-10-26T15:19:47Z","last_updated":"2025-10-27T02:17:05Z","status":"active"}
{"id":"170","title":"宮崎県/門川町","prefecture":"宮崎県","city":"門川","address":"宮崎県門川町大字庵川2822番地","city_url":"","lat":32.487021,"lng":131.676733,"pokemons":["アローラナッシー","マケンカニ","ローカルActs宮崎県ページへ"],"detail_url":"https://local.pokemon.jp/manhole/desc/170/?is_modal=1","prefecture_site_url":"","first_seen":"2025-10-26T15:19:48Z","added_at":"2025-10-26T15:19:48Z","last_updated":"2025-10-27T02:17:05Z","status":"active"}
{"id":"171","title":"宮崎県/美郷町","prefecture":"宮崎県","city":"美郷","address":"","city_url":"","lat":32.431976,"lng":131.467551,"pokemons":["タマタマ","ナッシー","ローカルActs宮崎県ページへ"],"detail_url":"https://local.pokemon.jp/manhole/desc/171/?is_modal=1","prefecture_site_url":"","first_seen":"2025-10-26T15:19:49Z","added_at":"2025-10-26T15:19:49Z","last_updated":"2025-10-27T02:17:05Z","status":"active"}
{"id":"172","title":"東京都/台東区上野","prefecture":"東京都","city":"台東区上野","address":"","city_url":"","lat":35.71681,"lng":139.776399,"pokemons":["ソーナノ","チゴラス"],"detail_url":"https://local.pokemon.jp/manhole/desc/172/?is_modal=1","prefecture_site_url":"","first_seen":"2025-10-26T15:19:50Z","added_at":"2025-10-26T15:19:50Z","last_updated":"2025-10-27T02:17:05Z","status":"active"}
{"id":"173","title":"東京都/台東区上野","prefecture":"東京都","city":"台東区上野","address":"","city_url":"","lat":35.717715,"lng":139.775397,"pokemons":["ドーミラー","ヤジロン"],"detail_url":"https://local.pokemon.jp/manhole/desc/173/?is_modal=1","prefecture_site_url":"","first_seen":"2025-10-26T15:19:50Z","added_at":"2025-10-26T15:19:50Z","last_updated":"2025-10-27T02:17:05Z","status":"active"}
{"id":"174","title":"沖縄県/那覇市","prefecture":"沖縄県","city":"那覇","address":"沖縄県那覇市牧志3丁目2","city_url":"","lat":26.21641,"lng":127.68942,"pokemons":["ウインディ","ローカルActs沖縄県ページへ"],"detail_url":"https://local.pokemon.jp/manhole/desc/174/?is_modal=1","prefecture_site_url":"","first_seen":"2025-10-26T15:19:51Z","added_at":"2025-10-26T15:19:51Z","last_updated":"2025-10-27T02:17:05Z","status":"active"}
{"id":"175","title":"沖縄県/宜野湾市","prefecture":"沖縄県","city":"宜野湾","address":"沖縄県宜野湾市真志喜4-2-1","city_url":"","lat":26.28139,"lng":127.732215,"pokemons":["サニーゴ","ラブカス","ローカルActs沖縄県ページへ"],"detail_url":"https://local.pokemon.jp/manhole/desc/175/?is_modal=1","prefecture_site_url":"","first_seen":"2025-10-26T15:19:52Z","added_at":"2025-10-26T15:19:52Z","last_updated":"2025-10-27T02:17:05Z","status":"active"}
{"id":"176","title":"沖縄県/沖縄市","prefecture":"沖縄県","city":"沖縄","address":"沖縄県沖縄市胡屋5-7-1","city_url":"","lat":26.32766,"lng":127.803001,"pokemons":["バチンキー","ラランテス","ローカルActs沖縄県ページへ"],"detail_url":"https://local.pokemon.jp/manhole/desc/176/?is_modal=1","prefecture_site_url":"","first_seen":"2025-10-26T15:19:53Z","added_at":"2025-10-26T15:19:53Z","last_updated":"2025-10-27T02:17:05Z","status":"active"}
{"id":"177","title":"沖縄県/うるま市","prefecture":"沖縄県","city":"うるま","address":"","city_url":"","lat":26.436181,"lng":127.826113,"pokemons":["ケンタロス","ローカルActs沖縄県ページへ"],"detail_url":"https://local.pokemon.jp/manhole/desc/177/?is_modal=1","prefecture_site_url":"","first_seen":"2025-10-26T15:19:54Z","added_at":"2025-10-26T15:19:54Z","last_updated":"2025-10-27T02:17:05Z","status":"active"}
{"id":"178","title":"宮崎県/高原町","prefecture":"宮崎県","city":"高原","address":"","city_url":"","lat":31.907234,"lng":130.960187,"pokemons":["ナッシー","ムチュール","ローカルActs宮崎県ページへ"],"detail_url":"https://local.pokemon.jp/manhole/desc/178/?is_modal=1","prefecture_site_url":"","first_seen":"2025-10-26T15:19:55Z","added_at":"2025-10-26T15:19:55Z","last_updated":"2025-10-27T02:17:05Z","status":"active"}
{"id":"179","title":"宮崎県/国富町","prefecture":"宮崎県","city":"国富","address":"","city_url":"","lat":31.988591,"lng":131.321916,"pokemons":["アローラナッシー","ゴクリン","ローカルActs宮崎県ページへ"],"detail_url":"https://local.pokemon.jp/manhole/desc/179/?is_modal=1","prefecture_site_url":"","first_seen":"2025-10-26T15:19:56Z","added_at":"2025-10-26T15:19:56Z","last_updated":"2025-10-27T02:17:05Z","status":"active"}
{"id":"180","title":"宮崎県/綾町","prefecture":"宮崎県","city":"綾","address":"宮崎県綾町大字南俣515番地","city_url":"","lat":31.9989753,"lng":131.2537536,"pokemons":["ナッシー","ナマケロ","ローカルActs宮崎県ページへ"],"detail_url":"https://local.pokemon.jp/manhole/desc/180/?is_modal=1","prefecture_site_url":"","first_seen":"2025-10-26T15:19:57Z","added_at":"2025-10-26T15:19:57Z","last_updated":"2025-10-27T02:17:05Z","status":"active"}
{"id":"181","title":"宮崎県/西米良村","prefecture":"宮崎県","city":"西米良","address":"","city_url":"","lat":32.223238,"lng":131.16329,"pokemons":["アローラナッシー","ゴルーグ","ローカルActs宮崎県ページへ"],"detail_url":"https://local.pokemon.jp/manhole/desc/181/?is_modal=1","prefecture_site_url":"","first_seen":"2025-10-26T15:19:58Z","added_at":"2025-10-26T15:19:58Z","last_updated":"2025-10-27T02:17:05Z","status":"active"}
{"id":"182","title":"宮崎県/諸塚村","prefecture":"宮崎県","city":"諸塚","address":"","city_url":"","lat":32.509811,"lng":131.331498,"pokemons":["ナッシー","レジロック","ローカルActs宮崎県ページへ"],"detail_url":"https://local.pokemon.jp/manhole/desc/182/?is_modal=1","prefecture_site_url":"","first_seen":"2025-10-26T15:19:59Z","added_at":"2025-10-26T15:19:59Z","last_updated":"2025-10-27T02:17:05Z","status":"active"}
{"id":"183","title":"宮崎県/椎葉村","prefecture":"宮崎県","city":"椎葉","address":"宮崎県椎葉村大字下福良1829番地57","city_url":"","lat":32.458153,"lng":131.153831,"pokemons":["シンボラー","ナッシー","ローカルActs宮崎県ページへ"],"detail_url":"https://local.pokemon.jp/manhole/desc/183/?is_modal=1","prefecture_site_url":"","first_seen":"2025-10-26T15:20:01Z","added_at":"2025-10-26T15:20:01Z","last_updated":"2025-10-27T02:17:05Z","status":"active"}
{"id":"184","title":"宮崎県/高千穂町","prefecture":"宮崎県","city":"高千穂","address":"","city_url":"","lat":32.707748,"lng":131.305889,"pokemons":["ナッシー","レジギガス","ローカルActs宮崎県ページへ"],"detail_url":"https://local.pokemon.jp/manhole/desc/184/?is_modal=1","prefecture_site_url":"","first_seen":"2025-10-26T15:20:03Z","added_at":"2025-10-26T15:20:03Z","last_updated":"2025-10-27T02:17:05Z","status":"active"}
{"id":"185","title":"宮崎県/日之影町","prefecture":"宮崎県","city":"日之影","address":"","city_url":"","lat":32.660643,"lng":131.388639,"pokemons":["ナッシー","レジスチル","ローカルActs宮崎県ページへ"],"detail_url":"https://local.pokemon.jp/manhole/desc/185/?is_modal=1","prefecture_site_url":"","first_seen":"2025-10-26T15:20:04Z","added_at":"2025-10-26T15:20:04Z","last_updated":"2025-10-27T02:17:05Z","status":"active"}
{"id":"186","title":"宮崎県/五ヶ瀬町","prefecture":"宮崎県","city":"五ヶ瀬","address":"","city_url":"","lat":32.679051,"lng":131.210041,"pokemons":["ナッシー","レジアイス","ローカルActs宮崎県ページへ"],"detail_url":"https://local.pokemon.jp/manhole/desc/186/?is_modal=1","prefecture_site_url":"","first_seen":"2025-10-26T15:20:05Z","added_at":"2025-10-26T15:20:05Z","last_updated":"2025-10-27T02:17:05Z","status":"active"}
{"id":"187","title":"北海道/函館市","prefecture":"北海道","city":"函館","address":"","city_url":"","lat":41.755926,"lng":140.715684,"pokemons":["アローラロコン","トゲキッス","ローカルActs北海道ページへ"],"detail_url":"https://local.pokemon.jp/manhole/desc/187/?is_modal=1","prefecture_site_url":"","first_seen":"2025-10-26T15:20:06Z","added_at":"2025-10-26T15:20:06Z","last_updated":"2025-10-27T02:17:05Z","status":"active"}
{"id":"188","title":"北海道/小樽市","prefecture":"北海道","city":"小樽","address":"北海道小樽市稲穂1丁目3番8号","city_url":"","lat":43.195544,"lng":140.998285,"pokemons":["アローラロコン","ローカルActs北海道ページへ"],"detail_url":"https://local.pokemon.jp/manhole/desc/188/?is_modal=1","prefecture_site_url":"","first_seen":"2025-10-26T15:20:07Z","added_at":"2025-10-26T15:20:07Z","last_updated":"2025-10-27T02:17:05Z","status":"active"}
{"id":"189","title":"北海道/根室市","prefecture":"北海道","city":"根室","address":"北海道根室市牧の内146番地243　明治公園内","city_url":"","lat":43.335936,"lng":145.598194,"pokemons":["アローラロコン","バリコオル","ローカルActs北海道ページへ"],"detail_url":"https://local.pokemon.jp/manhole/desc/189/?is_modal=1","prefecture_site_url":"","first_seen":"2025-10-26T15:20:08Z","added_at":"2025-10-26T15:20:08Z","last_updated":"2025-10-27T02:17:05Z","status":"active"}
{"id":"190","title":"北海道/登別市","prefecture":"北海道","city":"登別","address":"北海道登別市登別市登別港町１丁目4-9","city_url":"","lat":42.452786,"lng":141.180999,"pokemons":["キテルグマ","ロコン","ローカルActs北海道ページへ"],"detail_url":"https://local.pokemon.jp/manhole/desc/190/?is_modal=1","prefecture_site_url":"","first_seen":"2025-10-26T15:20:09Z","added_at":"2025-10-26T15:20:09Z","last_updated":"2025-10-27T02:17:05Z","status":"active"}
{"id":"191","title":"北海道/本別町","prefecture":"北海道","city":"本別","address":"北海道本別町北3丁目1-2","city_url":"","lat":43.125781,"lng":143.613441,"pokemons":["メタモン","ロコン","ローカルActs北海道ページへ"],"detail_url":"https://local.pokemon.jp/manhole/desc/191/?is_modal=1","prefecture_site_url":"","first_seen":"2025-10-26T15:20:11Z","added_at":"2025-10-26T15:20:11Z","last_updated":"2025-10-27T02:17:05Z","status":"active"}
{"id":"192","title":"北海道/陸別町","prefecture":"北海道","city":"陸別","address":"","city_url":"","lat":43.467701,"lng":143.742721,"pokemons":["アローラロコン","カチコール","ローカルActs北海道ページへ"],"detail_url":"https://local.pokemon.jp/manhole/desc/192/?is_modal=1","prefecture_site_url":"","first_seen":"2025-10-26T15:20:12Z","added_at":"2025-10-26T15:20:12Z","last_updated":"2025-10-27T02:17:05Z","status":"active"}
{"id":"193","title":"北海道/中標津町","prefecture":"北海道","city":"中標津","address":"北海道中標津町丸山2丁目1番地18","city_url":"","lat":43.554566,"lng":144.969609,"pokemons":["ロコン","ローカルActs北海道ページへ","ワカシャモ"],"detail_url":"https://local.pokemon.jp/manhole/desc/193/?is_modal=1","prefecture_site_url":"","first_seen":"2025-10-26T15:20:13Z","added_at":"2025-10-26T15:20:13Z","last_updated":"2025-10-27T02:17:05Z","status":"active"}
{"id":"194","title":"岡山県/倉敷市","prefecture":"岡山県","city":"倉敷","address":"","city_url":"","lat":34.43427,"lng":133.81388,"pokemons":["ルカリオ"],"detail_url":"https://local.pokemon.jp/manhole/desc/194/?is_modal=1","prefecture_site_url":"","first_seen":"2025-10-26T15:20:14Z","added_at":"2025-10-26T15:20:14Z","last_updated":"2025-10-27T02:17:05Z","status":"active"}
{"id":"195","title":"岡山県/倉敷市","prefecture":"岡山県","city":"倉敷","address":"岡山県倉敷市中央2-6-1","city_url":"","lat":34.59556,"lng":133.76888,"pokemons":["アゲハント","ポチエナ"],"detail_url":"https://local.pokemon.jp/manhole/desc/195/?is_modal=1","prefecture_site_url":"","first_seen":"2025-10-26T15:20:15Z","added_at":"2025-10-26T15:20:15Z","last_updated":"2025-10-27T02:17:05Z","status":"active"}
{"id":"196","title":"岡山県/倉敷市","prefecture":"岡山県","city":"倉敷","address":"岡山県倉敷市中央1-18-1","city_url":"","lat":34.59274,"lng":133.77046,"pokemons":["サルノリ","ワタシラガ"],"detail_url":"https://local.pokemon.jp/manhole/desc/196/?is_modal=1","prefecture_site_url":"","first_seen":"2025-10-26T15:20:16Z","added_at":"2025-10-26T15:20:16Z","last_updated":"2025-10-27T02:17:05Z","status":"active"}
{"id":"197","title":"岡山県/倉敷市","prefecture":"岡山県","city":"倉敷","address":"岡山県倉敷市阿知2丁目17","city_url":"","lat":34.59829,"lng":133.77029,"pokemons":["ケンホロウ"],"detail_url":"https://local.pokemon.jp/manhole/desc/197/?is_modal=1","prefecture_site_url":"","first_seen":"2025-10-26T15:20:17Z","added_at":"2025-10-26T15:20:17Z","last_updated":"2025-10-27T02:17:05Z","status":"active"}
{"id":"198","title":"福岡県/北九州市","prefecture":"福岡県","city":"北九州","address":"","city_url":"","lat":33.884982,"lng":130.876213,"pokemons":["ボスゴドラ"],"detail_url":"https://local.pokemon.jp/manhole/desc/198/?is_modal=1","prefecture_site_url":"","first_seen":"2025-10-26T15:20:18Z","added_at":"2025-10-26T15:20:18Z","last_updated":"2025-10-27T02:17:05Z","status":"active"}
{"id":"199","title":"福岡県/北九州市","prefecture":"福岡県","city":"北九州","address":"","city_url":"","lat":33.890528,"lng":130.884609,"pokemons":["アローラダグトリオ","トロッゴン"],"detail_url":"https://local.pokemon.jp/manhole/desc/199/?is_modal=1","prefecture_site_url":"","first_seen":"2025-10-26T15:20:19Z","added_at":"2025-10-26T15:20:19Z","last_updated":"2025-10-27T02:17:05Z","status":"active"}
{"id":"200","title":"福岡県/北九州市","prefecture":"福岡県","city":"北九州","address":"福岡県北九州市八幡東区東田４丁目１１","city_url":"","lat":33.87192,"lng":130.807892,"pokemons":["ジュラルドン","ヤミラミ"],"detail_url":"https://local.pokemon.jp/manhole/desc/200/?is_modal=1","prefecture_site_url":"","first_seen":"2025-10-26T15:20:20Z","added_at":"2025-10-26T15:20:20Z","last_updated":"2026-01-28T10:05:48Z","status":"active","building":""}
{"id":"201","title":"福岡県/北九州市","prefecture":"福岡県","city":"北九州","address":"","city_url":"","lat":33.946285,"lng":130.964119,"pokemons":["サーナイト","ルナトーン"],"detail_url":"https://local.pokemon.jp/manhole/desc/201/?is_modal=1","prefecture_site_url":"","first_seen":"2025-10-26T15:20:21Z","added_at":"2025-10-26T15:20:21Z","last_updated":"2025-10-27T02:17:05Z","status":"active"}
{"id":"202","title":"福岡県/北九州市","prefecture":"福岡県","city":"北九州","address":"","city_url":"","lat":33.957206,"lng":130.96161,"pokemons":["トロピウス"],"detail_url":"https://local.pokemon.jp/manhole/desc/202/?is_modal=1","prefecture_site_url":"","first_seen":"2025-10-26T15:20:22Z","added_at":"2025-10-26T15:20:22Z","last_updated":"2025-10-27T02:17:05Z","status":"active"}
{"id":"203","title":"兵庫県/淡路市","prefecture":"兵庫県","city":"淡路","address":"","city_url":"","lat":34.601828,"lng":135.009441,"pokemons":["ルギア"],"detail_url":"https://local.pokemon.jp/manhole/desc/203/?is_modal=1","prefecture_site_url":"","first_seen":"2025-10-26T15:20:23Z","added_at":"2025-10-26T15:20:23Z","last_updated":"2025-10-27T02:17:05Z","status":"active"}
{"id":"204","title":"兵庫県/淡路市","prefecture":"兵庫県","city":"淡路","address":"","city_url":"","lat":34.550436,"lng":134.938094,"pokemons":["フレフワン","ベイリーフ"],"detail_url":"https://local.pokemon.jp/manhole/desc/204/?is_modal=1","prefecture_site_url":"","first_seen":"2025-10-26T15:20:24Z","added_at":"2025-10-26T15:20:24Z","last_updated":"2025-10-27T02:17:05Z","status":"active"}
{"id":"205","title":"兵庫県/淡路市","prefecture":"兵庫県","city":"淡路","address":"","city_url":"","lat":34.482151,"lng":134.873103,"pokemons":["トリトドン","パルシェン"],"detail_url":"https://local.pokemon.jp/manhole/desc/205/?is_modal=1","prefecture_site_url":"","first_seen":"2025-10-26T15:20:25Z","added_at":"2025-10-26T15:20:25Z","last_updated":"2025-10-27T02:17:05Z","status":"active"}
{"id":"206","title":"大阪府/東大阪市","prefecture":"大阪府","city":"東大阪","address":"大阪府東大阪市荒本北1丁目1番1号","city_url":"","lat":34.679788,"lng":135.601221,"pokemons":["コイル","レアコイル"],"detail_url":"https://local.pokemon.jp/manhole/desc/206/?is_modal=1","prefecture_site_url":"","first_seen":"2025-10-26T15:20:26Z","added_at":"2025-10-26T15:20:26Z","last_updated":"2025-10-27T02:17:05Z","status":"active"}
{"id":"207","title":"大阪府/東大阪市","prefecture":"大阪府","city":"東大阪","address":"","city_url":"","lat":34.66771,"lng":135.63989,"pokemons":["ギアル","ギギアル"],"detail_url":"https://local.pokemon.jp/manhole/desc/207/?is_modal=1","prefecture_site_url":"","first_seen":"2025-10-26T15:20:27Z","added_at":"2025-10-26T15:20:27Z","last_updated":"2025-10-27T02:17:05Z","status":"active"}
{"id":"208","title":"大阪府/東大阪市","prefecture":"大阪府","city":"東大阪","address":"","city_url":"","lat":34.680678,"lng":135.650788,"pokemons":["エレキッド","クチート"],"detail_url":"https://local.pokemon.jp/manhole/desc/208/?is_modal=1","prefecture_site_url":"","first_seen":"2025-10-26T15:20:28Z","added_at":"2025-10-26T15:20:28Z","last_updated":"2025-10-27T02:17:05Z","status":"active"}
{"id":"209","title":"大阪府/東大阪市","prefecture":"大阪府","city":"東大阪","address":"","city_url":"","lat":34.667678,"lng":135.626309,"pokemons":["ライコウ"],"detail_url":"https://local.pokemon.jp/manhole/desc/209/?is_modal=1","prefecture_site_url":"","first_seen":"2025-10-26T15:20:29Z","added_at":"2025-10-26T15:20:29Z","last_updated":"2025-10-27T02:17:05Z","status":"active"}
{"id":"210","title":"大阪府/東大阪市","prefecture":"大阪府","city":"東大阪","address":"","city_url":"","lat":34.669486,"lng":135.630586,"pokemons":["トゲデマル","ワンパチ"],"detail_url":"https://local.pokemon.jp/manhole/desc/210/?is_modal=1","prefecture_site_url":"","first_seen":"2025-10-26T15:20:30Z","added_at":"2025-10-26T15:20:30Z","last_updated":"2025-10-27T02:17:05Z","status":"active"}
{"id":"211","title":"埼玉県/所沢市","prefecture":"埼玉県","city":"所沢","address":"","city_url":"","lat":35.797482,"lng":139.505528,"pokemons":["アーマーガア","ミニリュウ"],"detail_url":"https://local.pokemon.jp/manhole/desc/211/?is_modal=1","prefecture_site_url":"","first_seen":"2025-10-26T15:20:31Z","added_at":"2025-10-26T15:20:31Z","last_updated":"2025-10-27T02:17:05Z","status":"active"}
{"id":"212","title":"埼玉県/所沢市","prefecture":"埼玉県","city":"所沢","address":"","city_url":"","lat":35.786887,"lng":139.472881,"pokemons":["エアームド","ハクリュー"],"detail_url":"https://local.pokemon.jp/manhole/desc/212/?is_modal=1","prefecture_site_url":"","first_seen":"2025-10-26T15:20:32Z","added_at":"2025-10-26T15:20:32Z","last_updated":"2025-10-27T02:17:05Z","status":"active"}
{"id":"213","title":"埼玉県/所沢市","prefecture":"埼玉県","city":"所沢","address":"","city_url":"","lat":35.798734,"lng":139.471991,"pokemons":["カイリュー"],"detail_url":"https://local.pokemon.jp/manhole/desc/213/?is_modal=1","prefecture_site_url":"","first_seen":"2025-10-26T15:20:33Z","added_at":"2025-10-26T15:20:33Z","last_updated":"2025-10-27T02:17:05Z","status":"active"}
{"id":"214","title":"北海道/旭川市","prefecture":"北海道","city":"旭川","address":"北海道旭川市神楽4条6丁目1-12","city_url":"","lat":43.7595958,"lng":142.3485094,"pokemons":["アローラロコン","クマシュン","コオリッポ","ローカルActs北海道ページへ"],"detail_url":"https://local.pokemon.jp/manhole/desc/214/?is_modal=1","prefecture_site_url":"","first_seen":"2025-10-26T15:20:34Z","added_at":"2025-10-26T15:20:34Z","last_updated":"2025-10-27T02:17:05Z","status":"active"}
{"id":"215","title":"北海道/釧路市","prefecture":"北海道","city":"釧路","address":"北海道釧路市阿寒町上阿寒23線36番地1","city_url":"","lat":43.144027,"lng":144.14549,"pokemons":["アローラロコン","ジュナイパー","ローカルActs北海道ページへ"],"detail_url":"https://local.pokemon.jp/manhole/desc/215/?is_modal=1","prefecture_site_url":"","first_seen":"2025-10-26T15:20:35Z","added_at":"2025-10-26T15:20:35Z","last_updated":"2025-10-27T02:17:05Z","status":"active"}
{"id":"216","title":"北海道/帯広市","prefecture":"北海道","city":"帯広","address":"北海道帯広市西2条南12丁目6","city_url":"","lat":42.918205,"lng":143.202563,"pokemons":["アローラロコン","ドロバンコ","ロコン","ローカルActs北海道ページへ"],"detail_url":"https://local.pokemon.jp/manhole/desc/216/?is_modal=1","prefecture_site_url":"","first_seen":"2025-10-26T15:20:36Z","added_at":"2025-10-26T15:20:36Z","last_updated":"2025-10-27T02:17:05Z","status":"active"}
{"id":"217","title":"北海道/網走市","prefecture":"北海道","city":"網走","address":"北海道網走市南3条東4丁目5-1","city_url":"","lat":44.021949,"lng":144.274423,"pokemons":["アローラロコン","マニューラ","ローカルActs北海道ページへ"],"detail_url":"https://local.pokemon.jp/manhole/desc/217/?is_modal=1","prefecture_site_url":"","first_seen":"2025-10-26T15:20:37Z","added_at":"2025-10-26T15:20:37Z","last_updated":"2025-10-27T02:17:05Z","status":"active"}
{"id":"218","title":"北海道/赤井川村","prefecture":"北海道","city":"赤井川","address":"北海道赤井川村字都190番地16","city_url":"","lat":43.05125,"lng":140.844262,"pokemons":["アローラロコン","バニプッチ","ミブリム","ローカルActs北海道ページへ"],"detail_url":"https://local.pokemon.jp/manhole/desc/218/?is_modal=1","prefecture_site_url":"","first_seen":"2025-10-26T15:20:38Z","added_at":"2025-10-26T15:20:38Z","last_updated":"2025-10-27T02:17:05Z","status":"active"}
{"id":"219","title":"北海道/東川町","prefecture":"北海道","city":"東川","address":"北海道東川町北町1丁目1番2号","city_url":"","lat":43.698404,"lng":142.507039,"pokemons":["アローラロコン","ディアルガ","ローカルActs北海道ページへ"],"detail_url":"https://local.pokemon.jp/manhole/desc/219/?is_modal=1","prefecture_site_url":"","first_seen":"2025-10-26T15:20:39Z","added_at":"2025-10-26T15:20:39Z","last_updated":"2025-10-27T02:17:05Z","status":"active"}
{"id":"220","title":"北海道/斜里町","prefecture":"北海道","city":"斜里","address":"北海道斜里町ウトロ西186番地8","city_url":"","lat":44.06884,"lng":144.99062,"pokemons":["パルキア","ロコン","ローカルActs北海道ページへ"],"detail_url":"https://local.pokemon.jp/manhole/desc/220/?is_modal=1","prefecture_site_url":"","first_seen":"2025-10-26T15:20:40Z","added_at":"2025-10-26T15:20:40Z","last_updated":"2025-10-27T02:17:05Z","status":"active"}
{"id":"221","title":"北海道/えりも町","prefecture":"北海道","city":"えりも","address":"","city_url":"","lat":42.01782,"lng":143.14619,"pokemons":["アローラロコン","ルガルガン","ローカルActs北海道ページへ"],"detail_url":"https://local.pokemon.jp/manhole/desc/221/?is_modal=1","prefecture_site_url":"","first_seen":"2025-10-26T15:20:41Z","added_at":"2025-10-26T15:20:41Z","last_updated":"2025-10-27T02:17:05Z","status":"active"}
{"id":"222","title":"千葉県/香取市","prefecture":"千葉県","city":"香取","address":"","city_url":"","lat":35.894417,"lng":140.493902,"pokemons":["ガラルカモネギ"],"detail_url":"https://local.pokemon.jp/manhole/desc/222/?is_modal=1","prefecture_site_url":"","first_seen":"2025-10-26T15:20:43Z","added_at":"2025-10-26T15:20:43Z","last_updated":"2025-10-27T02:17:05Z","status":"active"}
{"id":"223","title":"千葉県/香取市","prefecture":"千葉県","city":"香取","address":"","city_url":"","lat":35.888376,"lng":140.497568,"pokemons":["ココガラ","タイレーツ"],"detail_url":"https://local.pokemon.jp/manhole/desc/223/?is_modal=1","prefecture_site_url":"","first_seen":"2025-10-26T15:20:44Z","added_at":"2025-10-26T15:20:44Z","last_updated":"2025-10-27T02:17:05Z","status":"active"}
{"id":"224","title":"千葉県/香取市","prefecture":"千葉県","city":"香取","address":"","city_url":"","lat":35.928206,"lng":140.523401,"pokemons":["フラージェス","ヤヤコマ"],"detail_url":"https://local.pokemon.jp/manhole/desc/224/?is_modal=1","prefecture_site_url":"","first_seen":"2025-10-26T15:20:45Z","added_at":"2025-10-26T15:20:45Z","last_updated":"2025-10-27T02:17:05Z","status":"active"}
{"id":"225","title":"千葉県/香取市","prefecture":"千葉県","city":"香取","address":"","city_url":"","lat":35.896204,"lng":140.506419,"pokemons":["タネボー","ハスボー","ムクバード"],"detail_url":"https://local.pokemon.jp/manhole/desc/225/?is_modal=1","prefecture_site_url":"","first_seen":"2025-10-26T15:20:46Z","added_at":"2025-10-26T15:20:46Z","last_updated":"2025-10-27T02:17:05Z","status":"active"}
{"id":"226","title":"栃木県/宇都宮市","prefecture":"栃木県","city":"宇都宮","address":"栃木県宇都宮市元今泉5丁目10-1","city_url":"","lat":36.56077,"lng":139.909489,"pokemons":["エレブー","ホシガリス"],"detail_url":"https://local.pokemon.jp/manhole/desc/226/?is_modal=1","prefecture_site_url":"","first_seen":"2025-10-26T15:20:47Z","added_at":"2025-10-26T15:20:47Z","last_updated":"2025-10-27T02:17:05Z","status":"active"}
{"id":"227","title":"栃木県/宇都宮市","prefecture":"栃木県","city":"宇都宮","address":"栃木県宇都宮市新里町丙254番地","city_url":"","lat":36.63422,"lng":139.83102,"pokemons":["イワパレス","ラクライ"],"detail_url":"https://local.pokemon.jp/manhole/desc/227/?is_modal=1","prefecture_site_url":"","first_seen":"2025-10-26T15:20:48Z","added_at":"2025-10-26T15:20:48Z","last_updated":"2025-10-27T02:17:05Z","status":"active"}
{"id":"228","title":"栃木県/宇都宮市","prefecture":"栃木県","city":"宇都宮","address":"栃木県宇都宮市大曽2丁目地内","city_url":"","lat":36.57228,"lng":139.88722,"pokemons":["ボルトロス"],"detail_url":"https://local.pokemon.jp/manhole/desc/228/?is_modal=1","prefecture_site_url":"","first_seen":"2025-10-26T15:20:49Z","added_at":"2025-10-26T15:20:49Z","last_updated":"2025-10-27T02:17:05Z","status":"active"}
{"id":"229","title":"沖縄県/浦添市","prefecture":"沖縄県","city":"浦添","address":"沖縄県浦添市勢理客4-14-1","city_url":"","lat":26.245559,"lng":127.687899,"pokemons":["ソルロック","ポポッコ","ローカルActs沖縄県ページへ"],"detail_url":"https://local.pokemon.jp/manhole/desc/229/?is_modal=1","prefecture_site_url":"","first_seen":"2025-10-26T15:20:49Z","added_at":"2025-10-26T15:20:49Z","last_updated":"2025-10-27T02:17:05Z","status":"active"}
{"id":"230","title":"沖縄県/名護市","prefecture":"沖縄県","city":"名護","address":"","city_url":"","lat":26.587352,"lng":127.985744,"pokemons":["エモンガ","ツツケラ","ローカルActs沖縄県ページへ"],"detail_url":"https://local.pokemon.jp/manhole/desc/230/?is_modal=1","prefecture_site_url":"","first_seen":"2025-10-26T15:20:51Z","added_at":"2025-10-26T15:20:51Z","last_updated":"2025-10-27T02:17:05Z","status":"active"}
{"id":"231","title":"沖縄県/糸満市","prefecture":"沖縄県","city":"糸満","address":"沖縄県糸満市西崎町4丁目19-1","city_url":"","lat":26.13828,"lng":127.661336,"pokemons":["カメール","スナバァ","ローカルActs沖縄県ページへ"],"detail_url":"https://local.pokemon.jp/manhole/desc/231/?is_modal=1","prefecture_site_url":"","first_seen":"2025-10-26T15:20:52Z","added_at":"2025-10-26T15:20:52Z","last_updated":"2025-10-27T02:17:05Z","status":"active"}
{"id":"232","title":"沖縄県/本部町","prefecture":"沖縄県","city":"本部","address":"","city_url":"","lat":26.691694,"lng":127.877972,"pokemons":["ホエルオー","ローカルActs沖縄県ページへ"],"detail_url":"https://local.pokemon.jp/manhole/desc/232/?is_modal=1","prefecture_site_url":"","first_seen":"2025-10-26T15:20:53Z","added_at":"2025-10-26T15:20:53Z","last_updated":"2025-10-27T02:17:05Z","status":"active"}
{"id":"233","title":"沖縄県/豊見城市","prefecture":"沖縄県","city":"豊見城","address":"","city_url":"","lat":26.15755646,"lng":127.656121,"pokemons":["キバゴ","ジャラコ","ローカルActs沖縄県ページへ"],"detail_url":"https://local.pokemon.jp/manhole/desc/233/?is_modal=1","prefecture_site_url":"","first_seen":"2025-10-26T15:20:54Z","added_at":"2025-10-26T15:20:54Z","last_updated":"2025-10-27T02:17:05Z","status":"active"}
{"id":"234","title":"沖縄県/南城市","prefecture":"沖縄県","city":"南城","address":"","city_url":"","lat":26.169111,"lng":127.827083,"pokemons":["ザングース","ハブネーク","ローカルActs沖縄県ページへ"],"detail_url":"https://local.pokemon.jp/manhole/desc/234/?is_modal=1","prefecture_site_url":"","first_seen":"2025-10-26T15:20:55Z","added_at":"2025-10-26T15:20:55Z","last_updated":"2025-10-27T02:17:05Z","status":"active"}
{"id":"235","title":"沖縄県/石垣市","prefecture":"沖縄県","city":"石垣","address":"","city_url":"","lat":24.337418,"lng":124.156947,"pokemons":["テッポウオ","マンタイン","ローカルActs沖縄県ページへ"],"detail_url":"https://local.pokemon.jp/manhole/desc/235/?is_modal=1","prefecture_site_url":"","first_seen":"2025-10-26T15:20:56Z","added_at":"2025-10-26T15:20:56Z","last_updated":"2025-10-27T02:17:05Z","status":"active"}
{"id":"236","title":"沖縄県/宮古島市","prefecture":"沖縄県","city":"宮古島","address":"","city_url":"","lat":24.734962,"lng":125.263088,"pokemons":["カイオーガ","ローカルActs沖縄県ページへ"],"detail_url":"https://local.pokemon.jp/manhole/desc/236/?is_modal=1","prefecture_site_url":"","first_seen":"2025-10-26T15:20:57Z","added_at":"2025-10-26T15:20:57Z","last_updated":"2025-10-27T02:17:05Z","status":"active"}
{"id":"237","title":"滋賀県/甲賀市","prefecture":"滋賀県","city":"甲賀","address":"","city_url":"","lat":34.919591,"lng":136.170196,"pokemons":["ゲッコウガ"],"detail_url":"https://local.pokemon.jp/manhole/desc/237/?is_modal=1","prefecture_site_url":"","first_seen":"2025-10-26T15:20:58Z","added_at":"2025-10-26T15:20:58Z","last_updated":"2025-10-27T02:17:05Z","status":"active"}
{"id":"238","title":"滋賀県/甲賀市","prefecture":"滋賀県","city":"甲賀","address":"","city_url":"","lat":34.960528,"lng":136.165168,"pokemons":["ゲッコウガ"],"detail_url":"https://local.pokemon.jp/manhole/desc/238/?is_modal=1","prefecture_site_url":"","first_seen":"2025-10-26T15:20:59Z","added_at":"2025-10-26T15:20:59Z","last_updated":"2025-10-27T02:17:05Z","status":"active"}
{"id":"239","title":"滋賀県/甲賀市","prefecture":"滋賀県","city":"甲賀","address":"滋賀県甲賀市甲賀町大久保507番地2","city_url":"","lat":34.900437,"lng":136.229399,"pokemons":["ゲコガシラ","ゲッコウガ"],"detail_url":"https://local.pokemon.jp/manhole/desc/239/?is_modal=1","prefecture_site_url":"","first_seen":"2025-10-26T15:21:00Z","added_at":"2025-10-26T15:21:00Z","last_updated":"2025-10-27T02:17:05Z","status":"active"}
{"id":"240","title":"三重県/津市","prefecture":"三重県","city":"津市","address":"三重県津市大門7-15","city_url":"","lat":34.718493,"lng":136.5108,"pokemons":["ミジュマル","ローカルActs三重県ページへ"],"detail_url":"https://local.pokemon.jp/manhole/desc/240/?is_modal=1","prefecture_site_url":"","first_seen":"2025-10-26T15:21:01Z","added_at":"2025-10-26T15:21:01Z","last_updated":"2025-10-27T02:17:05Z","status":"active","building":"津市まん中広場","address_raw":"津市大門7-15（津市まん中広場内）","address_norm":"三重県津市大門7-15","place_detail":"（津市まん中広場内）","nearby_spots":["park","tourism"],"source_urls":["2025-12-27"],"verified_at":"3"}
{"id":"241","title":"三重県/四日市市","prefecture":"三重県","city":"四日市市","address":"三重県四日市市日永東1-3-21","city_url":"","lat":34.952407,"lng":136.611964,"pokemons":["ダイケンキ","ミジュマル","ローカルActs三重県ページへ"],"detail_url":"https://local.pokemon.jp/manhole/desc/241/?is_modal=1","prefecture_site_url":"","first_seen":"2025-10-26T15:21:02Z","added_at":"2025-10-26T15:21:02Z","last_updated":"2025-10-27T02:17:05Z","status":"active","building":"中央緑地公園","address_raw":"四日市市日永東1-3-21（中央緑地公園内）","address_norm":"三重県四日市市日永東1-3-21","place_detail":"（中央緑地公園内）","nearby_spots":["park","sports","tourism"],"source_urls":["2025-12-27"],"verified_at":"3"}
{"id":"242","title":"三重県/伊勢市","prefecture":"三重県","city":"伊勢市","address":"三重県伊勢市吹上1-1-4","city_url":"","lat":34.487787,"lng":136.707097,"pokemons":["ミジュマル","リーシャン","ローカルActs三重県ページへ"],"detail_url":"https://local.pokemon.jp/manhole/desc/242/?is_modal=1","prefecture_site_url":"","first_seen":"2025-10-26T15:21:04Z","added_at":"2025-10-26T15:21:04Z","last_updated":"2025-10-27T02:17:05Z","status":"active","building":"外宮前広場","address_raw":"伊勢市吹上1-1-4（外宮前広場）","address_norm":"三重県伊勢市吹上1-1-4","place_detail":"（外宮前広場）","nearby_spots":["shrine","tourism"],"source_urls":["2025-12-27"],"verified_at":"3"}
{"id":"243","title":"三重県/鳥羽市","prefecture":"三重県","city":"鳥羽市","address":"三重県鳥羽市鳥羽1-2383-42","city_url":"","lat":34.48691,"lng":136.844825,"pokemons":["ジュゴン","ミジュマル","ローカルActs三重県ページへ"],"detail_url":"https://local.pokemon.jp/manhole/desc/243/?is_modal=1","prefecture_site_url":"","first_seen":"2025-10-26T15:21:05Z","added_at":"2025-10-26T15:21:05Z","last_updated":"2025-10-27T02:17:05Z","status":"active","building":"ドルフィン公園","address_raw":"鳥羽市鳥羽1-2383-42（ドルフィン公園）","address_norm":"三重県鳥羽市鳥羽1-2383-42","place_detail":"（ドルフィン公園）","nearby_spots":["seaside","tourism"],"source_urls":["2025-12-27"],"verified_at":"3"}
{"id":"244","title":"三重県/熊野市","prefecture":"三重県","city":"熊野市","address":"三重県熊野市木本町1835-7","city_url":"","lat":33.891753,"lng":136.116125,"pokemons":["ヌイコグマ","ミジュマル","ローカルActs三重県ページへ"],"detail_url":"https://local.pokemon.jp/manhole/desc/244/?is_modal=1","prefecture_site_url":"","first_seen":"2025-10-26T15:21:06Z","added_at":"2025-10-26T15:21:06Z","last_updated":"2025-10-27T02:17:05Z","status":"active","building":"鬼ヶ城センター","address_raw":"熊野市木本町1835-7","address_norm":"三重県熊野市木本町1835-7","parking":"geosite|tourism","tags":["2025-12-27"],"source_urls":["3"]}
{"id":"245","title":"三重県/志摩市","prefecture":"三重県","city":"志摩市","address":"三重県志摩市大王町波切276","city_url":"","lat":34.275988,"lng":136.898317,"pokemons":["パールル","ミジュマル","ローカルActs三重県ページへ"],"detail_url":"https://local.pokemon.jp/manhole/desc/245/?is_modal=1","prefecture_site_url":"","first_seen":"2025-10-26T15:21:07Z","added_at":"2025-10-26T15:21:07Z","last_updated":"2025-10-27T02:17:05Z","status":"active","building":"八幡さん公園","address_raw":"志摩市大王町波切276（八幡さん公園）","address_norm":"三重県志摩市大王町波切276","place_detail":"（八幡さん公園）","nearby_spots":["park","tourism"],"source_urls":["2025-12-27"],"verified_at":"3"}
{"id":"246","title":"三重県/伊賀市","prefecture":"三重県","city":"伊賀市","address":"三重県伊賀市上野丸之内61-2","city_url":"","lat":34.767543,"lng":136.130081,"pokemons":["アギルダー","ミジュマル","ローカルActs三重県ページへ"],"detail_url":"https://local.pokemon.jp/manhole/desc/246/?is_modal=1","prefecture_site_url":"","first_seen":"2025-10-26T15:21:08Z","added_at":"2025-10-26T15:21:08Z","last_updated":"2025-10-27T02:17:05Z","status":"active","building":"上野市駅前","address_raw":"伊賀市上野丸之内61-2（上野市駅前）","address_norm":"三重県伊賀市上野丸之内61-2","place_detail":"（上野市駅前）","nearby_spots":["station","tourism"],"source_urls":["2025-12-27"],"verified_at":"3"}
{"id":"247","title":"福島県/福島市","prefecture":"福島県","city":"福島","address":"","city_url":"","lat":37.80441,"lng":140.41091,"pokemons":["モルペコ","ラッキー","ローカルActs福島県ページへ"],"detail_url":"https://local.pokemon.jp/manhole/desc/247/?is_modal=1","prefecture_site_url":"","first_seen":"2025-10-26T15:21:09Z","added_at":"2025-10-26T15:21:09Z","last_updated":"2025-10-27T02:17:05Z","status":"active"}
{"id":"248","title":"福島県/会津若松市","prefecture":"福島県","city":"会津若松","address":"","city_url":"","lat":37.461146,"lng":139.927445,"pokemons":["エルレイド","ラッキー","ローカルActs福島県ページへ"],"detail_url":"https://local.pokemon.jp/manhole/desc/248/?is_modal=1","prefecture_site_url":"","first_seen":"2025-10-26T15:21:10Z","added_at":"2025-10-26T15:21:10Z","last_updated":"2025-10-27T02:17:05Z","status":"active"}
{"id":"249","title":"福島県/郡山市","prefecture":"福島県","city":"郡山","address":"福島県郡山市開成1丁目5","city_url":"","lat":37.396784,"lng":140.35612,"pokemons":["プリン","ラッキー","ローカルActs福島県ページへ"],"detail_url":"https://local.pokemon.jp/manhole/desc/249/?is_modal=1","prefecture_site_url":"","first_seen":"2025-10-26T15:21:11Z","added_at":"2025-10-26T15:21:11Z","last_updated":"2025-10-27T02:17:05Z","status":"active"}
{"id":"250","title":"福島県/南会津町","prefecture":"福島県","city":"南会津","address":"福島県南会津町田島字宮本東33番地１","city_url":"","lat":37.2057204,"lng":139.7778739,"pokemons":["ドッコラー","ラッキー","ローカルActs福島県ページへ"],"detail_url":"https://local.pokemon.jp/manhole/desc/250/?is_modal=1","prefecture_site_url":"","first_seen":"2025-10-26T15:21:12Z","added_at":"2025-10-26T15:21:12Z","last_updated":"2025-10-27T02:17:05Z","status":"active"}
{"id":"251","title":"福島県/柳津町","prefecture":"福島県","city":"柳津","address":"福島県柳津町大字柳津字下平乙161番地1","city_url":"","lat":37.528189,"lng":139.722662,"pokemons":["ピンプク","ラッキー","ローカルActs福島県ページへ"],"detail_url":"https://local.pokemon.jp/manhole/desc/251/?is_modal=1","prefecture_site_url":"","first_seen":"2025-10-26T15:21:13Z","added_at":"2025-10-26T15:21:13Z","last_updated":"2025-10-27T02:17:05Z","status":"active"}
{"id":"252","title":"福島県/昭和村","prefecture":"福島県","city":"昭和","address":"福島県昭和村大字佐倉字上ノ原1番地","city_url":"","lat":37.325691,"lng":139.630641,"pokemons":["クルミル","ラッキー","ローカルActs福島県ページへ"],"detail_url":"https://local.pokemon.jp/manhole/desc/252/?is_modal=1","prefecture_site_url":"","first_seen":"2025-10-26T15:21:14Z","added_at":"2025-10-26T15:21:14Z","last_updated":"2025-10-27T02:17:05Z","status":"active"}
{"id":"253","title":"福島県/双葉町","prefecture":"福島県","city":"双葉","address":"福島県双葉町大字中野字高田1番地1","city_url":"","lat":37.45745,"lng":141.02692,"pokemons":["ヒマナッツ","ラッキー","ローカルActs福島県ページへ"],"detail_url":"https://local.pokemon.jp/manhole/desc/253/?is_modal=1","prefecture_site_url":"","first_seen":"2025-10-26T15:21:15Z","added_at":"2025-10-26T15:21:15Z","last_updated":"2025-10-27T02:17:05Z","status":"active"}
{"id":"254","title":"福島県/飯舘村","prefecture":"福島県","city":"飯舘","address":"","city_url":"","lat":37.698145,"lng":140.735552,"pokemons":["フラエッテ","ラッキー","ローカルActs福島県ページへ"],"detail_url":"https://local.pokemon.jp/manhole/desc/254/?is_modal=1","prefecture_site_url":"","first_seen":"2025-10-26T15:21:16Z","added_at":"2025-10-26T15:21:16Z","last_updated":"2025-10-27T02:17:05Z","status":"active"}
{"id":"255","title":"佐賀県/佐賀市","prefecture":"佐賀県","city":"佐賀","address":"佐賀県佐賀市松原1丁目1-1","city_url":"","lat":33.25075645,"lng":130.2989299,"pokemons":["ニャース"],"detail_url":"https://local.pokemon.jp/manhole/desc/255/?is_modal=1","prefecture_site_url":"","first_seen":"2025-10-26T15:21:17Z","added_at":"2025-10-26T15:21:17Z","last_updated":"2025-10-27T02:17:05Z","status":"active"}
{"id":"256","title":"佐賀県/佐賀市","prefecture":"佐賀県","city":"佐賀","address":"佐賀県佐賀市水ヶ江2丁目11-11","city_url":"","lat":33.24833583,"lng":130.3089011,"pokemons":["アローラニャース"],"detail_url":"https://local.pokemon.jp/manhole/desc/256/?is_modal=1","prefecture_site_url":"","first_seen":"2025-10-26T15:21:18Z","added_at":"2025-10-26T15:21:18Z","last_updated":"2025-10-27T02:17:05Z","status":"active"}
{"id":"257","title":"佐賀県/佐賀市","prefecture":"佐賀県","city":"佐賀","address":"佐賀県佐賀市城内1丁目1-59","city_url":"","lat":33.24900974,"lng":130.3003128,"pokemons":["ガラルニャース"],"detail_url":"https://local.pokemon.jp/manhole/desc/257/?is_modal=1","prefecture_site_url":"","first_seen":"2025-10-26T15:21:19Z","added_at":"2025-10-26T15:21:19Z","last_updated":"2025-10-27T02:17:05Z","status":"active"}
{"id":"258","title":"岩手県/花巻市","prefecture":"岩手県","city":"花巻","address":"岩手県花巻市大通り1丁目2−21","city_url":"","lat":39.392034,"lng":141.11169,"pokemons":["イシツブテ","コスモッグ","レックウザ","ローカルActs岩手県ページへ"],"detail_url":"https://local.pokemon.jp/manhole/desc/258/?is_modal=1","prefecture_site_url":"","first_seen":"2025-10-26T15:21:20Z","added_at":"2025-10-26T15:21:20Z","last_updated":"2025-10-27T02:17:05Z","status":"active"}
