{"id": "1", "title": "Ibusuki", "prefecture": "Kagoshima", "lat": 31.237194, "lng": 130.642861, "pokemons": ["Eevee"], "detail_url": "https://local.pokemon.jp/en/manhole/desc/1/?is_modal=1", "source_last_checked": "2025-09-10T14:18:52Z"}
{"id": "2", "title": "Ibusuki", "prefecture": "Kagoshima", "lat": 31.228, "lng": 130.653028, "pokemons": ["Vaporeon"], "detail_url": "https://local.pokemon.jp/en/manhole/desc/2/?is_modal=1", "source_last_checked": "2025-09-10T14:18:52Z"}
{"id": "3", "title": "Ibusuki", "prefecture": "Kagoshima", "lat": 31.255278, "lng": 130.647639, "pokemons": ["Jolteon"], "detail_url": "https://local.pokemon.jp/en/manhole/desc/3/?is_modal=1", "source_last_checked": "2025-09-10T14:18:53Z"}
{"id": "4", "title": "Ibusuki", "prefecture": "Kagoshima", "lat": 31.229417, "lng": 130.651972, "pokemons": ["Flareon"], "detail_url": "https://local.pokemon.jp/en/manhole/desc/4/?is_modal=1", "source_last_checked": "2025-09-10T14:18:54Z"}
{"id": "5", "title": "Ibusuki", "prefecture": "Kagoshima", "lat": 31.238278, "lng": 130.645, "pokemons": ["Espeon"], "detail_url": "https://local.pokemon.jp/en/manhole/desc/5/?is_modal=1", "source_last_checked": "2025-09-10T14:18:55Z"}
{"id": "6", "title": "Ibusuki", "prefecture": "Kagoshima", "lat": 31.236833, "lng": 130.642188, "pokemons": ["Umbreon"], "detail_url": "https://local.pokemon.jp/en/manhole/desc/6/?is_modal=1", "source_last_checked": "2025-09-10T14:18:56Z"}
{"id": "7", "title": "Ibusuki", "prefecture": "Kagoshima", "lat": 31.263889, "lng": 130.662917, "pokemons": ["Leafeon"], "detail_url": "https://local.pokemon.jp/en/manhole/desc/7/?is_modal=1", "source_last_checked": "2025-09-10T14:18:56Z"}
{"id": "8", "title": "Ibusuki", "prefecture": "Kagoshima", "lat": 31.231056, "lng": 130.644611, "pokemons": ["Glaceon"], "detail_url": "https://local.pokemon.jp/en/manhole/desc/8/?is_modal=1", "source_last_checked": "2025-09-10T14:18:57Z"}
{"id": "9", "title": "Ibusuki", "prefecture": "Kagoshima", "lat": 31.235444, "lng": 130.641389, "pokemons": ["Sylveon"], "detail_url": "https://local.pokemon.jp/en/manhole/desc/9/?is_modal=1", "source_last_checked": "2025-09-10T14:18:58Z"}
{"id": "10", "title": "Hirono", "prefecture": "", "lat": 40.406101, "lng": 141.719531, "pokemons": ["Kabuto"], "detail_url": "https://local.pokemon.jp/en/manhole/desc/10/?is_modal=1", "source_last_checked": "2025-09-10T14:18:59Z"}
{"id": "11", "title": "Kuji", "prefecture": "", "lat": 40.189742, "lng": 141.765832, "pokemons": ["Aerodactyl"], "detail_url": "https://local.pokemon.jp/en/manhole/desc/11/?is_modal=1", "source_last_checked": "2025-09-10T14:19:00Z"}
{"id": "12", "title": "Noda", "prefecture": "", "lat": 40.082726, "lng": 141.828678, "pokemons": ["Onix"], "detail_url": "https://local.pokemon.jp/en/manhole/desc/12/?is_modal=1", "source_last_checked": "2025-09-10T14:19:00Z"}
{"id": "13", "title": "Fudai", "prefecture": "", "lat": 40.002821, "lng": 141.885736, "pokemons": ["Shieldon"], "detail_url": "https://local.pokemon.jp/en/manhole/desc/13/?is_modal=1", "source_last_checked": "2025-09-10T14:19:01Z"}
{"id": "14", "title": "Iwaizumi", "prefecture": "", "lat": 39.86044, "lng": 141.796532, "pokemons": ["Tyrunt"], "detail_url": "https://local.pokemon.jp/en/manhole/desc/14/?is_modal=1", "source_last_checked": "2025-09-10T14:19:02Z"}
{"id": "15", "title": "Tanohata", "prefecture": "", "lat": 39.916682, "lng": 141.938688, "pokemons": ["Nosepass"], "detail_url": "https://local.pokemon.jp/en/manhole/desc/15/?is_modal=1", "source_last_checked": "2025-09-10T14:19:03Z"}
{"id": "16", "title": "Miyako", "prefecture": "", "lat": 39.639471, "lng": 141.969701, "pokemons": ["Geodude"], "detail_url": "https://local.pokemon.jp/en/manhole/desc/16/?is_modal=1", "source_last_checked": "2025-09-10T14:19:04Z"}
{"id": "17", "title": "Yamada", "prefecture": "", "lat": 39.464186, "lng": 141.951043, "pokemons": ["Omanyte"], "detail_url": "https://local.pokemon.jp/en/manhole/desc/17/?is_modal=1", "source_last_checked": "2025-09-10T14:19:04Z"}
{"id": "18", "title": "Otsuchi", "prefecture": "", "lat": 39.357255, "lng": 141.90316, "pokemons": ["Shuckle"], "detail_url": "https://local.pokemon.jp/en/manhole/desc/18/?is_modal=1", "source_last_checked": "2025-09-10T14:19:05Z"}
{"id": "19", "title": "Kamaishi", "prefecture": "", "lat": 39.326865, "lng": 141.887862, "pokemons": ["Aron"], "detail_url": "https://local.pokemon.jp/en/manhole/desc/19/?is_modal=1", "source_last_checked": "2025-09-10T14:19:06Z"}
{"id": "20", "title": "Ofunato", "prefecture": "", "lat": 39.085906, "lng": 141.710256, "pokemons": ["Rhyhorn"], "detail_url": "https://local.pokemon.jp/en/manhole/desc/20/?is_modal=1", "source_last_checked": "2025-09-10T14:19:07Z"}
{"id": "21", "title": "Rikuzentakata", "prefecture": "", "lat": 39.01675, "lng": 141.628694, "pokemons": ["Rockruff"], "detail_url": "https://local.pokemon.jp/en/manhole/desc/21/?is_modal=1", "source_last_checked": "2025-09-10T14:19:08Z"}
{"id": "22", "title": "Sumita", "prefecture": "", "lat": 39.142287, "lng": 141.574456, "pokemons": ["Larvitar"], "detail_url": "https://local.pokemon.jp/en/manhole/desc/22/?is_modal=1", "source_last_checked": "2025-09-10T14:19:08Z"}
{"id": "23", "title": "Yokohama", "prefecture": "Kanagawa", "lat": 35.451167, "lng": 139.631501, "pokemons": ["Pikachu"], "detail_url": "https://local.pokemon.jp/en/manhole/desc/23/?is_modal=1", "source_last_checked": "2025-09-10T14:19:09Z"}
{"id": "28", "title": "Takamatsu", "prefecture": "", "lat": 34.338888, "lng": 134.049052, "pokemons": ["Slowpoke"], "detail_url": "https://local.pokemon.jp/en/manhole/desc/28/?is_modal=1", "source_last_checked": "2025-09-10T14:19:13Z"}
{"id": "29", "title": "Marugame", "prefecture": "", "lat": 34.292014, "lng": 133.793951, "pokemons": ["Slowpoke"], "detail_url": "https://local.pokemon.jp/en/manhole/desc/29/?is_modal=1", "source_last_checked": "2025-09-10T14:19:14Z"}
{"id": "30", "title": "Sakaide", "prefecture": "", "lat": 34.312992, "lng": 133.856292, "pokemons": ["Slowpoke"], "detail_url": "https://local.pokemon.jp/en/manhole/desc/30/?is_modal=1", "source_last_checked": "2025-09-10T14:19:15Z"}
{"id": "31", "title": "Zentsuji", "prefecture": "", "lat": 34.22531, "lng": 133.7773, "pokemons": ["Slowpoke", "Slowbro"], "detail_url": "https://local.pokemon.jp/en/manhole/desc/31/?is_modal=1", "source_last_checked": "2025-09-10T14:19:15Z"}
{"id": "32", "title": "KAN-ONJI", "prefecture": "", "lat": 34.125275, "lng": 133.655211, "pokemons": ["Slowpoke", "Slowking"], "detail_url": "https://local.pokemon.jp/en/manhole/desc/32/?is_modal=1", "source_last_checked": "2025-09-10T14:19:16Z"}
{"id": "33", "title": "Sanuki", "prefecture": "", "lat": 34.321305, "lng": 134.173241, "pokemons": ["Slowpoke", "Clefairy"], "detail_url": "https://local.pokemon.jp/en/manhole/desc/33/?is_modal=1", "source_last_checked": "2025-09-10T14:19:17Z"}
{"id": "34", "title": "Higashikagawa", "prefecture": "", "lat": 34.251174, "lng": 134.333457, "pokemons": ["Slowpoke"], "detail_url": "https://local.pokemon.jp/en/manhole/desc/34/?is_modal=1", "source_last_checked": "2025-09-10T14:19:18Z"}
{"id": "35", "title": "Mitoyo", "prefecture": "", "lat": 34.2687992, "lng": 133.6322219, "pokemons": ["Slowpoke", "Shellder"], "detail_url": "https://local.pokemon.jp/en/manhole/desc/35/?is_modal=1", "source_last_checked": "2025-09-10T14:19:19Z"}
{"id": "36", "title": "Tonosho", "prefecture": "", "lat": 34.482694, "lng": 134.187512, "pokemons": ["Slowpoke", "Ditto"], "detail_url": "https://local.pokemon.jp/en/manhole/desc/36/?is_modal=1", "source_last_checked": "2025-09-10T14:19:19Z"}
{"id": "37", "title": "Shodoshima", "prefecture": "", "lat": 34.4708542, "lng": 134.2358695, "pokemons": ["Slowpoke"], "detail_url": "https://local.pokemon.jp/en/manhole/desc/37/?is_modal=1", "source_last_checked": "2025-09-10T14:19:20Z"}
{"id": "38", "title": "Miki", "prefecture": "", "lat": 34.268586, "lng": 134.134567, "pokemons": ["Slowpoke"], "detail_url": "https://local.pokemon.jp/en/manhole/desc/38/?is_modal=1", "source_last_checked": "2025-09-10T14:19:21Z"}
{"id": "39", "title": "Naoshima", "prefecture": "", "lat": 34.455827, "lng": 133.975492, "pokemons": ["Slowpoke", "Magikarp"], "detail_url": "https://local.pokemon.jp/en/manhole/desc/39/?is_modal=1", "source_last_checked": "2025-09-10T14:19:22Z"}
{"id": "40", "title": "Ayagawa", "prefecture": "", "lat": 34.250399, "lng": 133.917073, "pokemons": ["Slowpoke"], "detail_url": "https://local.pokemon.jp/en/manhole/desc/40/?is_modal=1", "source_last_checked": "2025-09-10T14:19:23Z"}
{"id": "41", "title": "Kotohira", "prefecture": "", "lat": 34.187735, "lng": 133.819896, "pokemons": ["Slowpoke"], "detail_url": "https://local.pokemon.jp/en/manhole/desc/41/?is_modal=1", "source_last_checked": "2025-09-10T14:19:23Z"}
{"id": "42", "title": "Tadotsu", "prefecture": "", "lat": 34.272282, "lng": 133.757247, "pokemons": ["Slowpoke"], "detail_url": "https://local.pokemon.jp/en/manhole/desc/42/?is_modal=1", "source_last_checked": "2025-09-10T14:19:24Z"}
{"id": "43", "title": "Manno", "prefecture": "", "lat": 34.173339, "lng": 133.871387, "pokemons": ["Slowpoke"], "detail_url": "https://local.pokemon.jp/en/manhole/desc/43/?is_modal=1", "source_last_checked": "2025-09-10T14:19:25Z"}
{"id": "44", "title": "Kesennuma", "prefecture": "", "lat": 38.905694, "lng": 141.574667, "pokemons": ["Lapras", "Geodude"], "detail_url": "https://local.pokemon.jp/en/manhole/desc/44/?is_modal=1", "source_last_checked": "2025-09-10T14:19:26Z"}
{"id": "45", "title": "Minamisanriku", "prefecture": "", "lat": 38.717061, "lng": 141.52115, "pokemons": ["Lapras", "Octillery"], "detail_url": "https://local.pokemon.jp/en/manhole/desc/45/?is_modal=1", "source_last_checked": "2025-09-10T14:19:27Z"}
{"id": "46", "title": "Onagawa", "prefecture": "", "lat": 38.445695, "lng": 141.44623, "pokemons": ["Lapras", "Wingull"], "detail_url": "https://local.pokemon.jp/en/manhole/desc/46/?is_modal=1", "source_last_checked": "2025-09-10T14:19:27Z"}
{"id": "47", "title": "Ishinomaki", "prefecture": "", "lat": 38.433844, "lng": 141.303041, "pokemons": ["Lapras", "Meowth", "Litten", "Skitty", "Glameow"], "detail_url": "https://local.pokemon.jp/en/manhole/desc/47/?is_modal=1", "source_last_checked": "2025-09-10T14:19:28Z"}
{"id": "48", "title": "Higashimatsushima", "prefecture": "", "lat": 38.379414, "lng": 141.15671, "pokemons": ["Lapras", "Latios"], "detail_url": "https://local.pokemon.jp/en/manhole/desc/48/?is_modal=1", "source_last_checked": "2025-09-10T14:19:29Z"}
{"id": "49", "title": "Matsushima", "prefecture": "", "lat": 38.368987, "lng": 141.061207, "pokemons": ["Lapras"], "detail_url": "https://local.pokemon.jp/en/manhole/desc/49/?is_modal=1", "source_last_checked": "2025-09-10T14:19:30Z"}
{"id": "50", "title": "Shiogama", "prefecture": "", "lat": 38.318226, "lng": 141.023075, "pokemons": ["Lapras", "Plusle"], "detail_url": "https://local.pokemon.jp/en/manhole/desc/50/?is_modal=1", "source_last_checked": "2025-09-10T14:19:31Z"}
{"id": "51", "title": "Rifu", "prefecture": "", "lat": 38.329512, "lng": 140.975248, "pokemons": ["Lapras", "Minun"], "detail_url": "https://local.pokemon.jp/en/manhole/desc/51/?is_modal=1", "source_last_checked": "2025-09-10T14:19:31Z"}
{"id": "52", "title": "Shigahama", "prefecture": "", "lat": 38.304315, "lng": 141.083342, "pokemons": ["Lapras", "Ditto", "Staryu"], "detail_url": "https://local.pokemon.jp/en/manhole/desc/52/?is_modal=1", "source_last_checked": "2025-09-10T14:19:32Z"}
{"id": "53", "title": "Tagajo", "prefecture": "", "lat": 38.291943, "lng": 141.007158, "pokemons": ["Lapras", "Horsea"], "detail_url": "https://local.pokemon.jp/en/manhole/desc/53/?is_modal=1", "source_last_checked": "2025-09-10T14:19:33Z"}
{"id": "54", "title": "Sendai", "prefecture": "", "lat": 38.258587, "lng": 140.872666, "pokemons": ["Lapras", "Jirachi"], "detail_url": "https://local.pokemon.jp/en/manhole/desc/54/?is_modal=1", "source_last_checked": "2025-09-10T14:19:34Z"}
{"id": "55", "title": "Natori", "prefecture": "", "lat": 38.17213, "lng": 140.954044, "pokemons": ["Lapras"], "detail_url": "https://local.pokemon.jp/en/manhole/desc/55/?is_modal=1", "source_last_checked": "2025-09-10T14:19:35Z"}
{"id": "56", "title": "Iwanuma", "prefecture": "", "lat": 38.105296, "lng": 140.866325, "pokemons": ["Lapras", "Togepi"], "detail_url": "https://local.pokemon.jp/en/manhole/desc/56/?is_modal=1", "source_last_checked": "2025-09-10T14:19:35Z"}
{"id": "57", "title": "Watari", "prefecture": "", "lat": 38.04217, "lng": 140.915724, "pokemons": ["Lapras", "Swablu", "Starly", "Taillow", "Pidove"], "detail_url": "https://local.pokemon.jp/en/manhole/desc/57/?is_modal=1", "source_last_checked": "2025-09-10T14:19:36Z"}
{"id": "58", "title": "Yamamoto", "prefecture": "", "lat": 37.923988, "lng": 140.900996, "pokemons": ["Lapras", "Chansey"], "detail_url": "https://local.pokemon.jp/en/manhole/desc/58/?is_modal=1", "source_last_checked": "2025-09-10T14:19:37Z"}
{"id": "59", "title": "Ishikari", "prefecture": "", "lat": 43.585848, "lng": 141.423898, "pokemons": ["Vulpix", "Turtwig"], "detail_url": "https://local.pokemon.jp/en/manhole/desc/59/?is_modal=1", "source_last_checked": "2025-09-10T14:19:38Z"}
{"id": "60", "title": "Eniwa", "prefecture": "", "lat": 42.897132, "lng": 141.585789, "pokemons": ["Vulpix"], "detail_url": "https://local.pokemon.jp/en/manhole/desc/60/?is_modal=1", "source_last_checked": "2025-09-10T14:19:39Z"}
{"id": "61", "title": "Toyako", "prefecture": "", "lat": 42.566111, "lng": 140.819072, "pokemons": ["Vulpix", "Swinub"], "detail_url": "https://local.pokemon.jp/en/manhole/desc/61/?is_modal=1", "source_last_checked": "2025-09-10T14:19:39Z"}
{"id": "62", "title": "Mori", "prefecture": "", "lat": 42.108855, "lng": 140.572941, "pokemons": ["Alolan Vulpix", "Inkay"], "detail_url": "https://local.pokemon.jp/en/manhole/desc/62/?is_modal=1", "source_last_checked": "2025-09-10T14:19:40Z"}
{"id": "63", "title": "Kaminokuni", "prefecture": "", "lat": 41.808398, "lng": 140.095409, "pokemons": ["Vulpix", "Chimchar"], "detail_url": "https://local.pokemon.jp/en/manhole/desc/63/?is_modal=1", "source_last_checked": "2025-09-10T14:19:41Z"}
{"id": "64", "title": "Shibetsu", "prefecture": "", "lat": 44.175974, "lng": 142.392417, "pokemons": ["Vulpix", "Mareep"], "detail_url": "https://local.pokemon.jp/en/manhole/desc/64/?is_modal=1", "source_last_checked": "2025-09-10T14:19:42Z"}
{"id": "65", "title": "Pippu", "prefecture": "", "lat": 43.875033, "lng": 142.471699, "pokemons": ["Alolan Vulpix", "Piplup"], "detail_url": "https://local.pokemon.jp/en/manhole/desc/65/?is_modal=1", "source_last_checked": "2025-09-10T14:19:43Z"}
{"id": "66", "title": "Teshio", "prefecture": "", "lat": 44.88452, "lng": 141.74797, "pokemons": ["Vulpix", "Alolan Vulpix"], "detail_url": "https://local.pokemon.jp/en/manhole/desc/66/?is_modal=1", "source_last_checked": "2025-09-10T14:19:43Z"}
{"id": "67", "title": "Wakkanai", "prefecture": "", "lat": 45.417236, "lng": 141.677095, "pokemons": ["Alolan Vulpix", "Alolan Ninetales"], "detail_url": "https://local.pokemon.jp/en/manhole/desc/67/?is_modal=1", "source_last_checked": "2025-09-10T14:19:44Z"}
{"id": "68", "title": "Toyotomi", "prefecture": "", "lat": 45.103245, "lng": 141.778643, "pokemons": ["Alolan Vulpix", "Miltank"], "detail_url": "https://local.pokemon.jp/en/manhole/desc/68/?is_modal=1", "source_last_checked": "2025-09-10T14:19:45Z"}
{"id": "69", "title": "Mombetsu", "prefecture": "", "lat": 44.334641, "lng": 143.372211, "pokemons": ["Alolan Vulpix", "Spheal"], "detail_url": "https://local.pokemon.jp/en/manhole/desc/69/?is_modal=1", "source_last_checked": "2025-09-10T14:19:46Z"}
{"id": "70", "title": "Engaru", "prefecture": "", "lat": 44.021878, "lng": 143.497131, "pokemons": ["Alolan Vulpix", "Froslass"], "detail_url": "https://local.pokemon.jp/en/manhole/desc/70/?is_modal=1", "source_last_checked": "2025-09-10T14:19:47Z"}
{"id": "71", "title": "Ohzora", "prefecture": "", "lat": 43.915555, "lng": 144.17137, "pokemons": ["Vulpix", "Staraptor"], "detail_url": "https://local.pokemon.jp/en/manhole/desc/71/?is_modal=1", "source_last_checked": "2025-09-10T14:19:47Z"}
{"id": "72", "title": "Shintoku", "prefecture": "", "lat": 43.082684, "lng": 142.832927, "pokemons": ["Alolan Vulpix", "Teddiursa"], "detail_url": "https://local.pokemon.jp/en/manhole/desc/72/?is_modal=1", "source_last_checked": "2025-09-10T14:19:48Z"}
{"id": "73", "title": "Ashoro", "prefecture": "", "lat": 43.244229, "lng": 143.546753, "pokemons": ["Alolan Vulpix", "Uxie", "Mesprit", "Azelf"], "detail_url": "https://local.pokemon.jp/en/manhole/desc/73/?is_modal=1", "source_last_checked": "2025-09-10T14:19:49Z"}
{"id": "74", "title": "Tottori", "prefecture": "", "lat": 35.539668, "lng": 134.237266, "pokemons": ["Sandshrew", "Alolan Sandshrew", "Buneary"], "detail_url": "https://local.pokemon.jp/en/manhole/desc/74/?is_modal=1", "source_last_checked": "2025-09-10T14:19:50Z"}
{"id": "75", "title": "Yonago", "prefecture": "", "lat": 35.456258, "lng": 133.361525, "pokemons": ["Sandshrew", "Farfetch&#039;d", "Swanna"], "detail_url": "https://local.pokemon.jp/en/manhole/desc/75/?is_modal=1", "source_last_checked": "2025-09-10T14:19:51Z"}
{"id": "76", "title": "Kurayoshi", "prefecture": "", "lat": 35.454272, "lng": 133.850116, "pokemons": ["Sandshrew", "Alolan Sandshrew"], "detail_url": "https://local.pokemon.jp/en/manhole/desc/76/?is_modal=1", "source_last_checked": "2025-09-10T14:19:52Z"}
{"id": "77", "title": "Sakaiminato", "prefecture": "", "lat": 35.521481, "lng": 133.258356, "pokemons": ["Sandshrew", "Alolan Sandshrew", "Krabby"], "detail_url": "https://local.pokemon.jp/en/manhole/desc/77/?is_modal=1", "source_last_checked": "2025-09-10T14:19:52Z"}
{"id": "78", "title": "Iwami", "prefecture": "", "lat": 35.590938, "lng": 134.321556, "pokemons": ["Sandshrew", "Xatu"], "detail_url": "https://local.pokemon.jp/en/manhole/desc/78/?is_modal=1", "source_last_checked": "2025-09-10T14:19:53Z"}
{"id": "79", "title": "Wakasa", "prefecture": "", "lat": 35.343951, "lng": 134.400345, "pokemons": ["Alolan Sandshrew", "Snover"], "detail_url": "https://local.pokemon.jp/en/manhole/desc/79/?is_modal=1", "source_last_checked": "2025-09-10T14:19:54Z"}
{"id": "80", "title": "Misasa", "prefecture": "", "lat": 35.409324, "lng": 133.894397, "pokemons": ["Sandshrew", "Alolan Sandshrew", "Froakie"], "detail_url": "https://local.pokemon.jp/en/manhole/desc/80/?is_modal=1", "source_last_checked": "2025-09-10T14:19:55Z"}
{"id": "81", "title": "Yurihama", "prefecture": "", "lat": 35.478166, "lng": 133.88401, "pokemons": ["Sandshrew", "Shellder"], "detail_url": "https://local.pokemon.jp/en/manhole/desc/81/?is_modal=1", "source_last_checked": "2025-09-10T14:19:56Z"}
{"id": "82", "title": "Kotoura", "prefecture": "", "lat": 35.506942, "lng": 133.661612, "pokemons": ["Sandshrew", "Alolan Sandshrew"], "detail_url": "https://local.pokemon.jp/en/manhole/desc/82/?is_modal=1", "source_last_checked": "2025-09-10T14:19:56Z"}
{"id": "83", "title": "Daisen", "prefecture": "", "lat": 35.504584, "lng": 133.502093, "pokemons": ["Alolan Sandshrew", "Litwick"], "detail_url": "https://local.pokemon.jp/en/manhole/desc/83/?is_modal=1", "source_last_checked": "2025-09-10T14:19:57Z"}
{"id": "84", "title": "Nanbu", "prefecture": "", "lat": 35.347474, "lng": 133.423398, "pokemons": ["Sandshrew", "Alolan Sandshrew", "Trapinch"], "detail_url": "https://local.pokemon.jp/en/manhole/desc/84/?is_modal=1", "source_last_checked": "2025-09-10T14:19:58Z"}
{"id": "85", "title": "Houki", "prefecture": "", "lat": 35.383395, "lng": 133.458512, "pokemons": ["Sandshrew", "Alolan Sandshrew", "Glalie"], "detail_url": "https://local.pokemon.jp/en/manhole/desc/85/?is_modal=1", "source_last_checked": "2025-09-10T14:19:59Z"}
{"id": "86", "title": "Nichinan", "prefecture": "", "lat": 35.170524, "lng": 133.31094, "pokemons": ["Sandshrew", "Volbeat", "Illumise"], "detail_url": "https://local.pokemon.jp/en/manhole/desc/86/?is_modal=1", "source_last_checked": "2025-09-10T14:19:59Z"}
{"id": "87", "title": "Hino", "prefecture": "", "lat": 35.24192, "lng": 133.441049, "pokemons": ["Sandshrew", "Alolan Sandshrew", "Swablu"], "detail_url": "https://local.pokemon.jp/en/manhole/desc/87/?is_modal=1", "source_last_checked": "2025-09-10T14:20:00Z"}
{"id": "88", "title": "Shinchi", "prefecture": "", "lat": 37.878748, "lng": 140.925027, "pokemons": ["Chansey", "Stantler"], "detail_url": "https://local.pokemon.jp/en/manhole/desc/88/?is_modal=1", "source_last_checked": "2025-09-10T14:20:01Z"}
{"id": "89", "title": "Soma", "prefecture": "", "lat": 37.827708, "lng": 140.963244, "pokemons": ["Chansey", "Ponyta"], "detail_url": "https://local.pokemon.jp/en/manhole/desc/89/?is_modal=1", "source_last_checked": "2025-09-10T14:20:02Z"}
{"id": "90", "title": "Minamisoma", "prefecture": "", "lat": 37.63577, "lng": 140.983041, "pokemons": ["Chansey", "Rapidash"], "detail_url": "https://local.pokemon.jp/en/manhole/desc/90/?is_modal=1", "source_last_checked": "2025-09-10T14:20:03Z"}
{"id": "91", "title": "Namie", "prefecture": "", "lat": 37.496395, "lng": 141.000919, "pokemons": ["Chansey"], "detail_url": "https://local.pokemon.jp/en/manhole/desc/91/?is_modal=1", "source_last_checked": "2025-09-10T14:20:04Z"}
{"id": "92", "title": "Naraha", "prefecture": "", "lat": 37.2501442, "lng": 140.9975789, "pokemons": ["Chansey", "Raboot"], "detail_url": "https://local.pokemon.jp/en/manhole/desc/92/?is_modal=1", "source_last_checked": "2025-09-10T14:20:04Z"}
{"id": "93", "title": "Iwaki", "prefecture": "", "lat": 37.1073084, "lng": 140.9932743, "pokemons": ["Chansey", "Bellossom"], "detail_url": "https://local.pokemon.jp/en/manhole/desc/93/?is_modal=1", "source_last_checked": "2025-09-10T14:20:05Z"}
{"id": "94", "title": "Kawamata", "prefecture": "", "lat": 37.667671, "lng": 140.57675, "pokemons": ["Chansey", "Silcoon", "Cascoon"], "detail_url": "https://local.pokemon.jp/en/manhole/desc/94/?is_modal=1", "source_last_checked": "2025-09-10T14:20:06Z"}
{"id": "95", "title": "Tamura", "prefecture": "", "lat": 37.344423, "lng": 140.674289, "pokemons": ["Chansey", "Heracross"], "detail_url": "https://local.pokemon.jp/en/manhole/desc/95/?is_modal=1", "source_last_checked": "2025-09-10T14:20:07Z"}
{"id": "96", "title": "Kawauchi", "prefecture": "", "lat": 37.329458, "lng": 140.82162, "pokemons": ["Chansey", "Wishiwashi", "Arrokuda"], "detail_url": "https://local.pokemon.jp/en/manhole/desc/96/?is_modal=1", "source_last_checked": "2025-09-10T14:20:08Z"}
{"id": "97", "title": "Utazu", "prefecture": "", "lat": 34.3134259, "lng": 133.8075257, "pokemons": ["Galarian Slowpoke", "Quagsire"], "detail_url": "https://local.pokemon.jp/en/manhole/desc/97/?is_modal=1", "source_last_checked": "2025-09-10T14:20:08Z"}
{"id": "98", "title": "Machida", "prefecture": "Tokyo", "lat": 35.548108, "lng": 139.45034, "pokemons": ["Bulbasaur"], "detail_url": "https://local.pokemon.jp/en/manhole/desc/98/?is_modal=1", "source_last_checked": "2025-09-10T14:20:09Z"}
{"id": "99", "title": "Machida", "prefecture": "Tokyo", "lat": 35.548171, "lng": 139.4513, "pokemons": ["Charmander"], "detail_url": "https://local.pokemon.jp/en/manhole/desc/99/?is_modal=1", "source_last_checked": "2025-09-10T14:20:10Z"}
{"id": "100", "title": "Machida", "prefecture": "Tokyo", "lat": 35.545302, "lng": 139.45501, "pokemons": ["Squirtle"], "detail_url": "https://local.pokemon.jp/en/manhole/desc/100/?is_modal=1", "source_last_checked": "2025-09-10T14:20:11Z"}
{"id": "101", "title": "Machida", "prefecture": "Tokyo", "lat": 35.546111, "lng": 139.45436, "pokemons": ["Oddish", "Weedle", "Caterpie"], "detail_url": "https://local.pokemon.jp/en/manhole/desc/101/?is_modal=1", "source_last_checked": "2025-09-10T14:20:12Z"}
{"id": "102", "title": "Machida", "prefecture": "Tokyo", "lat": 35.545645, "lng": 139.45488, "pokemons": ["Pidgey", "Rattata"], "detail_url": "https://local.pokemon.jp/en/manhole/desc/102/?is_modal=1", "source_last_checked": "2025-09-10T14:20:12Z"}
{"id": "103", "title": "Machida", "prefecture": "Tokyo", "lat": 35.546713, "lng": 139.45398, "pokemons": ["Poliwag"], "detail_url": "https://local.pokemon.jp/en/manhole/desc/103/?is_modal=1", "source_last_checked": "2025-09-10T14:20:13Z"}
{"id": "104", "title": "Otsu", "prefecture": "Shiga", "lat": 35.0102, "lng": 135.8699, "pokemons": ["Gyarados"], "detail_url": "https://local.pokemon.jp/en/manhole/desc/104/?is_modal=1", "source_last_checked": "2025-09-10T14:20:14Z"}
{"id": "105", "title": "Otsu", "prefecture": "Shiga", "lat": 34.9981, "lng": 135.8946, "pokemons": ["Gyarados"], "detail_url": "https://local.pokemon.jp/en/manhole/desc/105/?is_modal=1", "source_last_checked": "2025-09-10T14:20:15Z"}
{"id": "106", "title": "Chizu", "prefecture": "", "lat": 35.265428, "lng": 134.226103, "pokemons": ["Sandshrew", "Sandslash", "Sudowoodo"], "detail_url": "https://local.pokemon.jp/en/manhole/desc/106/?is_modal=1", "source_last_checked": "2025-09-10T14:20:16Z"}
{"id": "107", "title": "Yazu", "prefecture": "", "lat": 35.366456, "lng": 134.339426, "pokemons": ["Alolan Sandshrew", "Alolan Sandslash"], "detail_url": "https://local.pokemon.jp/en/manhole/desc/107/?is_modal=1", "source_last_checked": "2025-09-10T14:20:17Z"}
{"id": "108", "title": "Hokuei", "prefecture": "", "lat": 35.49924, "lng": 133.81794, "pokemons": ["Sandshrew", "Alolan Sandshrew"], "detail_url": "https://local.pokemon.jp/en/manhole/desc/108/?is_modal=1", "source_last_checked": "2025-09-10T14:20:17Z"}
{"id": "109", "title": "Hiezu", "prefecture": "", "lat": 35.441126, "lng": 133.379578, "pokemons": ["Sandshrew", "Ditto"], "detail_url": "https://local.pokemon.jp/en/manhole/desc/109/?is_modal=1", "source_last_checked": "2025-09-10T14:20:18Z"}
{"id": "110", "title": "Kofu", "prefecture": "", "lat": 35.295841, "lng": 133.474089, "pokemons": ["Sandshrew", "Alolan Sandshrew"], "detail_url": "https://local.pokemon.jp/en/manhole/desc/110/?is_modal=1", "source_last_checked": "2025-09-10T14:20:19Z"}
{"id": "111", "title": "Miyazaki", "prefecture": "", "lat": 31.807505, "lng": 131.457839, "pokemons": ["Exeggutor", "Castform"], "detail_url": "https://local.pokemon.jp/en/manhole/desc/111/?is_modal=1", "source_last_checked": "2025-09-10T14:20:20Z"}
{"id": "112", "title": "Miyakonojo", "prefecture": "", "lat": 31.725213, "lng": 131.0661894, "pokemons": ["Alolan Exeggutor", "Minior"], "detail_url": "https://local.pokemon.jp/en/manhole/desc/112/?is_modal=1", "source_last_checked": "2025-09-10T14:20:21Z"}
{"id": "113", "title": "Nobeoka", "prefecture": "", "lat": 32.684711, "lng": 131.801103, "pokemons": ["Exeggutor", "Alolan Exeggutor"], "detail_url": "https://local.pokemon.jp/en/manhole/desc/113/?is_modal=1", "source_last_checked": "2025-09-10T14:20:21Z"}
{"id": "114", "title": "Nichinan", "prefecture": "", "lat": 31.58793, "lng": 131.4017058, "pokemons": ["Alolan Exeggutor", "Probopass"], "detail_url": "https://local.pokemon.jp/en/manhole/desc/114/?is_modal=1", "source_last_checked": "2025-09-10T14:20:22Z"}
{"id": "115", "title": "Kobayashi", "prefecture": "", "lat": 31.957509, "lng": 131.125965, "pokemons": ["Exeggutor", "Rowlet"], "detail_url": "https://local.pokemon.jp/en/manhole/desc/115/?is_modal=1", "source_last_checked": "2025-09-10T14:20:23Z"}
{"id": "116", "title": "Hyuga", "prefecture": "", "lat": 32.4253924, "lng": 131.6277364, "pokemons": ["Exeggutor", "Oricorio"], "detail_url": "https://local.pokemon.jp/en/manhole/desc/116/?is_modal=1", "source_last_checked": "2025-09-10T14:20:24Z"}
{"id": "117", "title": "Kushima", "prefecture": "", "lat": 31.36627, "lng": 131.332809, "pokemons": ["Exeggutor", "Galarian Ponyta"], "detail_url": "https://local.pokemon.jp/en/manhole/desc/117/?is_modal=1", "source_last_checked": "2025-09-10T14:20:24Z"}
{"id": "118", "title": "Saito", "prefecture": "", "lat": 32.106625, "lng": 131.404508, "pokemons": ["Exeggutor", "Sunflora"], "detail_url": "https://local.pokemon.jp/en/manhole/desc/118/?is_modal=1", "source_last_checked": "2025-09-10T14:20:25Z"}
{"id": "119", "title": "ebino", "prefecture": "", "lat": 32.050305, "lng": 130.80595, "pokemons": ["Exeggutor", "Torkoal"], "detail_url": "https://local.pokemon.jp/en/manhole/desc/119/?is_modal=1", "source_last_checked": "2025-09-10T14:20:26Z"}
{"id": "120", "title": "Shiroishi", "prefecture": "", "lat": 38.002511, "lng": 140.61735, "pokemons": ["Lapras", "Nickit"], "detail_url": "https://local.pokemon.jp/en/manhole/desc/120/?is_modal=1", "source_last_checked": "2025-09-10T14:20:27Z"}
{"id": "121", "title": "Kakuda", "prefecture": "", "lat": 37.968694, "lng": 140.807077, "pokemons": ["Lapras", "Latias"], "detail_url": "https://local.pokemon.jp/en/manhole/desc/121/?is_modal=1", "source_last_checked": "2025-09-10T14:20:28Z"}
{"id": "122", "title": "Tome", "prefecture": "", "lat": 38.616649, "lng": 141.235491, "pokemons": ["Lapras", "Lotad"], "detail_url": "https://local.pokemon.jp/en/manhole/desc/122/?is_modal=1", "source_last_checked": "2025-09-10T14:20:28Z"}
{"id": "123", "title": "Kurihara", "prefecture": "", "lat": 38.794479, "lng": 140.844403, "pokemons": ["Lapras", "Ducklett"], "detail_url": "https://local.pokemon.jp/en/manhole/desc/123/?is_modal=1", "source_last_checked": "2025-09-10T14:20:29Z"}
{"id": "124", "title": "Osaki", "prefecture": "", "lat": 38.575852, "lng": 140.955973, "pokemons": ["Lapras", "Dugtrio", "Spearow"], "detail_url": "https://local.pokemon.jp/en/manhole/desc/124/?is_modal=1", "source_last_checked": "2025-09-10T14:20:30Z"}
{"id": "125", "title": "Tomiya", "prefecture": "", "lat": 38.398336, "lng": 140.8875, "pokemons": ["Lapras", "Snubbull"], "detail_url": "https://local.pokemon.jp/en/manhole/desc/125/?is_modal=1", "source_last_checked": "2025-09-10T14:20:31Z"}
{"id": "126", "title": "Zao", "prefecture": "", "lat": 38.123663, "lng": 140.577192, "pokemons": ["Lapras", "Abomasnow"], "detail_url": "https://local.pokemon.jp/en/manhole/desc/126/?is_modal=1", "source_last_checked": "2025-09-10T14:20:32Z"}
{"id": "127", "title": "Shichikashuku", "prefecture": "", "lat": 37.982523, "lng": 140.46662, "pokemons": ["Lapras", "Bibarel"], "detail_url": "https://local.pokemon.jp/en/manhole/desc/127/?is_modal=1", "source_last_checked": "2025-09-10T14:20:33Z"}
{"id": "128", "title": "Ogawara", "prefecture": "", "lat": 38.0485032, "lng": 140.738089, "pokemons": ["Lapras", "Cherrim"], "detail_url": "https://local.pokemon.jp/en/manhole/desc/128/?is_modal=1", "source_last_checked": "2025-09-10T14:20:33Z"}
{"id": "129", "title": "Murata", "prefecture": "", "lat": 38.119071, "lng": 140.717821, "pokemons": ["Lapras", "Lickilicky"], "detail_url": "https://local.pokemon.jp/en/manhole/desc/129/?is_modal=1", "source_last_checked": "2025-09-10T14:20:34Z"}
{"id": "130", "title": "Shibata", "prefecture": "", "lat": 38.059143, "lng": 140.768239, "pokemons": ["Lapras", "Flabébé"], "detail_url": "https://local.pokemon.jp/en/manhole/desc/130/?is_modal=1", "source_last_checked": "2025-09-10T14:20:35Z"}
{"id": "131", "title": "Kawasaki", "prefecture": "", "lat": 38.1775391, "lng": 140.6464362, "pokemons": ["Lapras"], "detail_url": "https://local.pokemon.jp/en/manhole/desc/131/?is_modal=1", "source_last_checked": "2025-09-10T14:20:36Z"}
{"id": "132", "title": "Marumori", "prefecture": "", "lat": 37.913873, "lng": 140.762531, "pokemons": ["Lapras", "Meowth", "Espurr"], "detail_url": "https://local.pokemon.jp/en/manhole/desc/132/?is_modal=1", "source_last_checked": "2025-09-10T14:20:36Z"}
{"id": "133", "title": "Taiwa", "prefecture": "", "lat": 38.437364, "lng": 140.885648, "pokemons": ["Lapras", "Foongus", "Torterra"], "detail_url": "https://local.pokemon.jp/en/manhole/desc/133/?is_modal=1", "source_last_checked": "2025-09-10T14:20:37Z"}
{"id": "134", "title": "Osato", "prefecture": "", "lat": 38.424016, "lng": 140.992673, "pokemons": ["Lapras", "Petilil"], "detail_url": "https://local.pokemon.jp/en/manhole/desc/134/?is_modal=1", "source_last_checked": "2025-09-10T14:20:38Z"}
{"id": "135", "title": "Ohira", "prefecture": "", "lat": 38.46943814, "lng": 140.8902292, "pokemons": ["Lapras", "Frillish", "Luvdisc"], "detail_url": "https://local.pokemon.jp/en/manhole/desc/135/?is_modal=1", "source_last_checked": "2025-09-10T14:20:39Z"}
{"id": "136", "title": "shikam", "prefecture": "", "lat": 38.530136, "lng": 140.86142, "pokemons": ["Lapras", "Lombre"], "detail_url": "https://local.pokemon.jp/en/manhole/desc/136/?is_modal=1", "source_last_checked": "2025-09-10T14:20:40Z"}
{"id": "137", "title": "Kami", "prefecture": "", "lat": 38.57215, "lng": 140.72859, "pokemons": ["Lapras", "Roselia"], "detail_url": "https://local.pokemon.jp/en/manhole/desc/137/?is_modal=1", "source_last_checked": "2025-09-10T14:20:40Z"}
{"id": "138", "title": "Wakuya", "prefecture": "", "lat": 38.5392702, "lng": 141.1267433, "pokemons": ["Lapras", "Mudsdale"], "detail_url": "https://local.pokemon.jp/en/manhole/desc/138/?is_modal=1", "source_last_checked": "2025-09-10T14:20:41Z"}
{"id": "139", "title": "Misato", "prefecture": "", "lat": 38.489061, "lng": 141.133053, "pokemons": ["Lapras", "Doduo", "Dodrio"], "detail_url": "https://local.pokemon.jp/en/manhole/desc/139/?is_modal=1", "source_last_checked": "2025-09-10T14:20:42Z"}
{"id": "140", "title": "Tomakomai", "prefecture": "", "lat": 42.635755, "lng": 141.61009, "pokemons": ["Vulpix", "Ninetales"], "detail_url": "https://local.pokemon.jp/en/manhole/desc/140/?is_modal=1", "source_last_checked": "2025-09-10T14:20:43Z"}
{"id": "141", "title": "Mikasa", "prefecture": "", "lat": 43.2613165, "lng": 141.9626673, "pokemons": ["Vulpix", "Omanyte", "Cranidos"], "detail_url": "https://local.pokemon.jp/en/manhole/desc/141/?is_modal=1", "source_last_checked": "2025-09-10T14:20:44Z"}
{"id": "142", "title": "Kamifurano", "prefecture": "", "lat": 43.462246, "lng": 142.479068, "pokemons": ["Alolan Vulpix", "Delcatty"], "detail_url": "https://local.pokemon.jp/en/manhole/desc/142/?is_modal=1", "source_last_checked": "2025-09-10T14:20:44Z"}
{"id": "143", "title": "Kembuchi", "prefecture": "", "lat": 44.1000303, "lng": 142.3593096, "pokemons": ["Alolan Vulpix", "Honedge"], "detail_url": "https://local.pokemon.jp/en/manhole/desc/143/?is_modal=1", "source_last_checked": "2025-09-10T14:20:45Z"}
{"id": "144", "title": "Ojiya", "prefecture": "Niigata", "lat": 37.314216, "lng": 138.794792, "pokemons": ["Magikarp"], "detail_url": "https://local.pokemon.jp/en/manhole/desc/144/?is_modal=1", "source_last_checked": "2025-09-10T14:20:46Z"}
{"id": "145", "title": "Ojiya", "prefecture": "Niigata", "lat": 37.309883, "lng": 138.812939, "pokemons": ["Magikarp"], "detail_url": "https://local.pokemon.jp/en/manhole/desc/145/?is_modal=1", "source_last_checked": "2025-09-10T14:20:47Z"}
{"id": "146", "title": "Ojiya", "prefecture": "Niigata", "lat": 37.311028, "lng": 138.795653, "pokemons": ["Magikarp", "Feebas"], "detail_url": "https://local.pokemon.jp/en/manhole/desc/146/?is_modal=1", "source_last_checked": "2025-09-10T14:20:48Z"}
{"id": "147", "title": "Ojiya", "prefecture": "Niigata", "lat": 37.314301, "lng": 138.7835, "pokemons": ["Magikarp", "Pidgeotto"], "detail_url": "https://local.pokemon.jp/en/manhole/desc/147/?is_modal=1", "source_last_checked": "2025-09-10T14:20:48Z"}
{"id": "148", "title": "Ikaruga", "prefecture": "Nara", "lat": 34.60189, "lng": 135.73917, "pokemons": ["Bronzong", "Simisear"], "detail_url": "https://local.pokemon.jp/en/manhole/desc/148/?is_modal=1", "source_last_checked": "2025-09-10T14:20:49Z"}
{"id": "149", "title": "Ikaruga", "prefecture": "Nara", "lat": 34.60474, "lng": 135.7376, "pokemons": ["Bellsprout", "Growlithe"], "detail_url": "https://local.pokemon.jp/en/manhole/desc/149/?is_modal=1", "source_last_checked": "2025-09-10T14:20:50Z"}
{"id": "150", "title": "Ikaruga", "prefecture": "Nara", "lat": 34.60827, "lng": 135.73769, "pokemons": ["Magby", "Chimecho"], "detail_url": "https://local.pokemon.jp/en/manhole/desc/150/?is_modal=1", "source_last_checked": "2025-09-10T14:20:51Z"}
{"id": "151", "title": "Ikaruga", "prefecture": "Nara", "lat": 34.60826, "lng": 135.73755, "pokemons": ["Fletchinder", "Deerling"], "detail_url": "https://local.pokemon.jp/en/manhole/desc/151/?is_modal=1", "source_last_checked": "2025-09-10T14:20:52Z"}
{"id": "152", "title": "Ikaruga", "prefecture": "Nara", "lat": 34.60983, "lng": 135.73529, "pokemons": ["Entei"], "detail_url": "https://local.pokemon.jp/en/manhole/desc/152/?is_modal=1", "source_last_checked": "2025-09-10T14:20:52Z"}
{"id": "153", "title": "Ogasawara", "prefecture": "Tokyo", "lat": 27.094863, "lng": 142.194033, "pokemons": ["Venusaur"], "detail_url": "https://local.pokemon.jp/en/manhole/desc/153/?is_modal=1", "source_last_checked": "2025-09-10T14:20:53Z"}
{"id": "154", "title": "Ogasawara", "prefecture": "Tokyo", "lat": 27.094708, "lng": 142.193279, "pokemons": ["Charizard"], "detail_url": "https://local.pokemon.jp/en/manhole/desc/154/?is_modal=1", "source_last_checked": "2025-09-10T14:20:54Z"}
{"id": "155", "title": "Ogasawara", "prefecture": "Tokyo", "lat": 27.094596, "lng": 142.192781, "pokemons": ["Blastoise"], "detail_url": "https://local.pokemon.jp/en/manhole/desc/155/?is_modal=1", "source_last_checked": "2025-09-10T14:20:55Z"}
{"id": "156", "title": "Ogasawara", "prefecture": "Tokyo", "lat": 27.09448, "lng": 142.19235, "pokemons": ["Mew"], "detail_url": "https://local.pokemon.jp/en/manhole/desc/156/?is_modal=1", "source_last_checked": "2025-09-10T14:20:56Z"}
{"id": "157", "title": "Hachinohe", "prefecture": "Aomori", "lat": 40.537937, "lng": 141.558034, "pokemons": ["Geodude", "Wingull"], "detail_url": "https://local.pokemon.jp/en/manhole/desc/157/?is_modal=1", "source_last_checked": "2025-09-10T14:20:57Z"}
{"id": "158", "title": "Hashikami", "prefecture": "Aomori", "lat": 40.458437, "lng": 141.608335, "pokemons": ["Pyukumuku", "Pincurchin", "Snom"], "detail_url": "https://local.pokemon.jp/en/manhole/desc/158/?is_modal=1", "source_last_checked": "2025-09-10T14:20:57Z"}
{"id": "159", "title": "Kyoto", "prefecture": "Kyoto", "lat": 35.011863, "lng": 135.678745, "pokemons": ["Ho-Oh"], "detail_url": "https://local.pokemon.jp/en/manhole/desc/159/?is_modal=1", "source_last_checked": "2025-09-10T14:20:58Z"}
{"id": "160", "title": "Kyoto", "prefecture": "Kyoto", "lat": 35.00337, "lng": 135.780573, "pokemons": ["Pichu", "Cleffa", "Igglybuff"], "detail_url": "https://local.pokemon.jp/en/manhole/desc/160/?is_modal=1", "source_last_checked": "2025-09-10T14:20:59Z"}
{"id": "161", "title": "Kyoto", "prefecture": "Kyoto", "lat": 34.994784, "lng": 135.714323, "pokemons": ["Chikorita", "Shiftry"], "detail_url": "https://local.pokemon.jp/en/manhole/desc/161/?is_modal=1", "source_last_checked": "2025-09-10T14:21:00Z"}
{"id": "162", "title": "Kyoto", "prefecture": "Kyoto", "lat": 35.014858, "lng": 135.782013, "pokemons": ["Cyndaquil", "Darmanitan"], "detail_url": "https://local.pokemon.jp/en/manhole/desc/162/?is_modal=1", "source_last_checked": "2025-09-10T14:21:01Z"}
{"id": "163", "title": "Kyoto", "prefecture": "Kyoto", "lat": 34.987804, "lng": 135.743538, "pokemons": ["Totodile", "Azumarill"], "detail_url": "https://local.pokemon.jp/en/manhole/desc/163/?is_modal=1", "source_last_checked": "2025-09-10T14:21:01Z"}
{"id": "164", "title": "Mimata", "prefecture": "", "lat": 31.73375, "lng": 131.120309, "pokemons": ["Exeggutor", "Woobat"], "detail_url": "https://local.pokemon.jp/en/manhole/desc/164/?is_modal=1", "source_last_checked": "2025-09-10T14:21:02Z"}
{"id": "165", "title": "Takanabe", "prefecture": "", "lat": 32.115956, "lng": 131.532841, "pokemons": ["Alolan Exeggutor", "Alolan Raichu"], "detail_url": "https://local.pokemon.jp/en/manhole/desc/165/?is_modal=1", "source_last_checked": "2025-09-10T14:21:03Z"}
{"id": "166", "title": "Shintomi", "prefecture": "", "lat": 32.071055, "lng": 131.512198, "pokemons": ["Alolan Exeggutor", "Makuhita"], "detail_url": "https://local.pokemon.jp/en/manhole/desc/166/?is_modal=1", "source_last_checked": "2025-09-10T14:21:04Z"}
{"id": "167", "title": "Kijo", "prefecture": "", "lat": 32.1699, "lng": 131.42974, "pokemons": ["Exeggutor", "Ditto"], "detail_url": "https://local.pokemon.jp/en/manhole/desc/167/?is_modal=1", "source_last_checked": "2025-09-10T14:21:05Z"}
{"id": "168", "title": "Kawaminami", "prefecture": "", "lat": 32.191491, "lng": 131.528984, "pokemons": ["Exeggutor", "Marshtomp"], "detail_url": "https://local.pokemon.jp/en/manhole/desc/168/?is_modal=1", "source_last_checked": "2025-09-10T14:21:06Z"}
{"id": "169", "title": "Tsuno", "prefecture": "", "lat": 32.2609016, "lng": 131.5575768, "pokemons": ["Alolan Exeggutor", "Buizel"], "detail_url": "https://local.pokemon.jp/en/manhole/desc/169/?is_modal=1", "source_last_checked": "2025-09-10T14:21:06Z"}
{"id": "170", "title": "Kadogawa", "prefecture": "", "lat": 32.487021, "lng": 131.676733, "pokemons": ["Alolan Exeggutor", "Crabrawler"], "detail_url": "https://local.pokemon.jp/en/manhole/desc/170/?is_modal=1", "source_last_checked": "2025-09-10T14:21:07Z"}
{"id": "171", "title": "Misato", "prefecture": "", "lat": 32.431976, "lng": 131.467551, "pokemons": ["Exeggutor", "Exeggcute"], "detail_url": "https://local.pokemon.jp/en/manhole/desc/171/?is_modal=1", "source_last_checked": "2025-09-10T14:21:08Z"}
{"id": "172", "title": "Ueno", "prefecture": "Tokyo", "lat": 35.71681, "lng": 139.776397, "pokemons": ["Tyrunt", "Wynaut"], "detail_url": "https://local.pokemon.jp/en/manhole/desc/172/?is_modal=1", "source_last_checked": "2025-09-10T14:21:09Z"}
{"id": "173", "title": "Ueno", "prefecture": "Tokyo", "lat": 35.717715, "lng": 139.775397, "pokemons": ["Baltoy", "Bronzor"], "detail_url": "https://local.pokemon.jp/en/manhole/desc/173/?is_modal=1", "source_last_checked": "2025-09-10T14:21:10Z"}
{"id": "174", "title": "Naha", "prefecture": "", "lat": 26.21641, "lng": 127.68942, "pokemons": ["Arcanine"], "detail_url": "https://local.pokemon.jp/en/manhole/desc/174/?is_modal=1", "source_last_checked": "2025-09-10T14:21:10Z"}
{"id": "175", "title": "Ginowan", "prefecture": "", "lat": 26.28139, "lng": 127.732214, "pokemons": ["Corsola", "Luvdisc"], "detail_url": "https://local.pokemon.jp/en/manhole/desc/175/?is_modal=1", "source_last_checked": "2025-09-10T14:21:11Z"}
{"id": "176", "title": "Okinawa", "prefecture": "", "lat": 26.32766, "lng": 127.803001, "pokemons": ["Thwackey", "Lurantis"], "detail_url": "https://local.pokemon.jp/en/manhole/desc/176/?is_modal=1", "source_last_checked": "2025-09-10T14:21:12Z"}
{"id": "177", "title": "Uruma", "prefecture": "", "lat": 26.436181, "lng": 127.826113, "pokemons": ["Tauros"], "detail_url": "https://local.pokemon.jp/en/manhole/desc/177/?is_modal=1", "source_last_checked": "2025-09-10T14:21:13Z"}
{"id": "178", "title": "Takaharu", "prefecture": "", "lat": 31.907234, "lng": 130.960187, "pokemons": ["Exeggutor", "Smoochum"], "detail_url": "https://local.pokemon.jp/en/manhole/desc/178/?is_modal=1", "source_last_checked": "2025-09-10T14:21:14Z"}
{"id": "179", "title": "Kunitomi", "prefecture": "", "lat": 31.988591, "lng": 131.321916, "pokemons": ["Alolan Exeggutor", "Gulpin"], "detail_url": "https://local.pokemon.jp/en/manhole/desc/179/?is_modal=1", "source_last_checked": "2025-09-10T14:21:14Z"}
{"id": "180", "title": "Aya", "prefecture": "", "lat": 31.9989753, "lng": 131.2537536, "pokemons": ["Exeggutor", "Slakoth"], "detail_url": "https://local.pokemon.jp/en/manhole/desc/180/?is_modal=1", "source_last_checked": "2025-09-10T14:21:15Z"}
{"id": "181", "title": "Nishimera", "prefecture": "", "lat": 32.223238, "lng": 131.16329, "pokemons": ["Alolan Exeggutor", "Golurk"], "detail_url": "https://local.pokemon.jp/en/manhole/desc/181/?is_modal=1", "source_last_checked": "2025-09-10T14:21:16Z"}
{"id": "182", "title": "Morotsuka", "prefecture": "", "lat": 32.509811, "lng": 131.331498, "pokemons": ["Exeggutor", "Regirock"], "detail_url": "https://local.pokemon.jp/en/manhole/desc/182/?is_modal=1", "source_last_checked": "2025-09-10T14:21:17Z"}
{"id": "183", "title": "Shiiba", "prefecture": "", "lat": 32.458153, "lng": 131.153831, "pokemons": ["Exeggutor", "Sigilyph"], "detail_url": "https://local.pokemon.jp/en/manhole/desc/183/?is_modal=1", "source_last_checked": "2025-09-10T14:21:18Z"}
{"id": "184", "title": "Takachiho", "prefecture": "", "lat": 32.707748, "lng": 131.305889, "pokemons": ["Exeggutor", "Regigigas"], "detail_url": "https://local.pokemon.jp/en/manhole/desc/184/?is_modal=1", "source_last_checked": "2025-09-10T14:21:18Z"}
{"id": "185", "title": "Hinokage", "prefecture": "", "lat": 32.660643, "lng": 131.388639, "pokemons": ["Exeggutor", "Registeel"], "detail_url": "https://local.pokemon.jp/en/manhole/desc/185/?is_modal=1", "source_last_checked": "2025-09-10T14:21:19Z"}
{"id": "186", "title": "Gokase", "prefecture": "", "lat": 32.679051, "lng": 131.210041, "pokemons": ["Exeggutor", "Regice"], "detail_url": "https://local.pokemon.jp/en/manhole/desc/186/?is_modal=1", "source_last_checked": "2025-09-10T14:21:20Z"}
{"id": "187", "title": "Hakodate", "prefecture": "", "lat": 41.755926, "lng": 140.715684, "pokemons": ["Alolan Vulpix", "Togekiss"], "detail_url": "https://local.pokemon.jp/en/manhole/desc/187/?is_modal=1", "source_last_checked": "2025-09-10T14:21:21Z"}
{"id": "188", "title": "Otaru", "prefecture": "", "lat": 43.195544, "lng": 140.998285, "pokemons": ["Alolan Vulpix"], "detail_url": "https://local.pokemon.jp/en/manhole/desc/188/?is_modal=1", "source_last_checked": "2025-09-10T14:21:22Z"}
{"id": "189", "title": "Nemuro", "prefecture": "", "lat": 43.335936, "lng": 145.598194, "pokemons": ["Alolan Vulpix", "Mr. Rime"], "detail_url": "https://local.pokemon.jp/en/manhole/desc/189/?is_modal=1", "source_last_checked": "2025-09-10T14:21:22Z"}
{"id": "190", "title": "Noboribetsu", "prefecture": "", "lat": 42.452786, "lng": 141.180999, "pokemons": ["Vulpix", "Bewear"], "detail_url": "https://local.pokemon.jp/en/manhole/desc/190/?is_modal=1", "source_last_checked": "2025-09-10T14:21:23Z"}
{"id": "191", "title": "Honbetsu", "prefecture": "", "lat": 43.125781, "lng": 143.613441, "pokemons": ["Vulpix", "Ditto"], "detail_url": "https://local.pokemon.jp/en/manhole/desc/191/?is_modal=1", "source_last_checked": "2025-09-10T14:21:24Z"}
{"id": "192", "title": "Rikubetsu", "prefecture": "", "lat": 43.467701, "lng": 143.742721, "pokemons": ["Alolan Vulpix", "Bergmite"], "detail_url": "https://local.pokemon.jp/en/manhole/desc/192/?is_modal=1", "source_last_checked": "2025-09-10T14:21:25Z"}
{"id": "193", "title": "Nakashibetsu", "prefecture": "", "lat": 43.554566, "lng": 144.969609, "pokemons": ["Vulpix", "Combusken"], "detail_url": "https://local.pokemon.jp/en/manhole/desc/193/?is_modal=1", "source_last_checked": "2025-09-10T14:21:26Z"}
{"id": "194", "title": "Kurashiki", "prefecture": "Okayama", "lat": 34.43427, "lng": 133.81388, "pokemons": ["Lucario"], "detail_url": "https://local.pokemon.jp/en/manhole/desc/194/?is_modal=1", "source_last_checked": "2025-09-10T14:21:26Z"}
{"id": "195", "title": "Kurashiki", "prefecture": "Okayama", "lat": 34.59556, "lng": 133.76888, "pokemons": ["Poochyena", "Beautifly"], "detail_url": "https://local.pokemon.jp/en/manhole/desc/195/?is_modal=1", "source_last_checked": "2025-09-10T14:21:27Z"}
{"id": "196", "title": "Kurashiki", "prefecture": "Okayama", "lat": 34.59274, "lng": 133.77046, "pokemons": ["Grookey", "Eldegoss"], "detail_url": "https://local.pokemon.jp/en/manhole/desc/196/?is_modal=1", "source_last_checked": "2025-09-10T14:21:28Z"}
{"id": "197", "title": "Kurashiki", "prefecture": "Okayama", "lat": 34.59829, "lng": 133.77029, "pokemons": ["Unfezant"], "detail_url": "https://local.pokemon.jp/en/manhole/desc/197/?is_modal=1", "source_last_checked": "2025-09-10T14:21:29Z"}
{"id": "198", "title": "Kitakyushu", "prefecture": "Fukuoka", "lat": 33.884982, "lng": 130.876213, "pokemons": ["Aggron"], "detail_url": "https://local.pokemon.jp/en/manhole/desc/198/?is_modal=1", "source_last_checked": "2025-09-10T14:21:30Z"}
{"id": "199", "title": "Kitakyushu", "prefecture": "Fukuoka", "lat": 33.890528, "lng": 130.884609, "pokemons": ["Alolan Dugtrio", "Carkol"], "detail_url": "https://local.pokemon.jp/en/manhole/desc/199/?is_modal=1", "source_last_checked": "2025-09-10T14:21:30Z"}
{"id": "200", "title": "Kitakyushu", "prefecture": "Fukuoka", "lat": 33.871791, "lng": 130.807495, "pokemons": ["Sableye", "Duraludon"], "detail_url": "https://local.pokemon.jp/en/manhole/desc/200/?is_modal=1", "source_last_checked": "2025-09-10T14:21:31Z"}
{"id": "201", "title": "Kitakyushu", "prefecture": "Fukuoka", "lat": 33.946285, "lng": 130.964119, "pokemons": ["Gardevoir", "Lunatone"], "detail_url": "https://local.pokemon.jp/en/manhole/desc/201/?is_modal=1", "source_last_checked": "2025-09-10T14:21:32Z"}
{"id": "202", "title": "Kitakyushu", "prefecture": "Fukuoka", "lat": 33.957206, "lng": 130.96161, "pokemons": ["Tropius"], "detail_url": "https://local.pokemon.jp/en/manhole/desc/202/?is_modal=1", "source_last_checked": "2025-09-10T14:21:33Z"}
{"id": "203", "title": "Awaji", "prefecture": "Hyogo", "lat": 34.601828, "lng": 135.009441, "pokemons": ["Lugia"], "detail_url": "https://local.pokemon.jp/en/manhole/desc/203/?is_modal=1", "source_last_checked": "2025-09-10T14:21:34Z"}
{"id": "204", "title": "Awaji", "prefecture": "Hyogo", "lat": 34.550436, "lng": 134.938094, "pokemons": ["Bayleef", "Aromatisse"], "detail_url": "https://local.pokemon.jp/en/manhole/desc/204/?is_modal=1", "source_last_checked": "2025-09-10T14:21:34Z"}
{"id": "205", "title": "Awaji", "prefecture": "Hyogo", "lat": 34.482151, "lng": 134.873103, "pokemons": ["Cloyster", "Gastrodon"], "detail_url": "https://local.pokemon.jp/en/manhole/desc/205/?is_modal=1", "source_last_checked": "2025-09-10T14:21:35Z"}
{"id": "206", "title": "Higashiosaka", "prefecture": "Osaka", "lat": 34.679788, "lng": 135.601221, "pokemons": ["Magnemite", "Magneton"], "detail_url": "https://local.pokemon.jp/en/manhole/desc/206/?is_modal=1", "source_last_checked": "2025-09-10T14:21:36Z"}
{"id": "207", "title": "Higashiosaka", "prefecture": "Osaka", "lat": 34.66771, "lng": 135.63989, "pokemons": ["Klink", "Klang"], "detail_url": "https://local.pokemon.jp/en/manhole/desc/207/?is_modal=1", "source_last_checked": "2025-09-10T14:21:37Z"}
{"id": "208", "title": "Higashiosaka", "prefecture": "Osaka", "lat": 34.680678, "lng": 135.650788, "pokemons": ["Elekid", "Mawile"], "detail_url": "https://local.pokemon.jp/en/manhole/desc/208/?is_modal=1", "source_last_checked": "2025-09-10T14:21:38Z"}
{"id": "209", "title": "Higashiosaka", "prefecture": "Osaka", "lat": 34.667678, "lng": 135.626309, "pokemons": ["Raikou"], "detail_url": "https://local.pokemon.jp/en/manhole/desc/209/?is_modal=1", "source_last_checked": "2025-09-10T14:21:38Z"}
{"id": "210", "title": "Higashiosaka", "prefecture": "Osaka", "lat": 34.669486, "lng": 135.630586, "pokemons": ["Yamper", "Togedemaru"], "detail_url": "https://local.pokemon.jp/en/manhole/desc/210/?is_modal=1", "source_last_checked": "2025-09-10T14:21:39Z"}
{"id": "211", "title": "Tokorozawa", "prefecture": "Saitama", "lat": 35.797482, "lng": 139.505528, "pokemons": ["Dratini", "Corviknight"], "detail_url": "https://local.pokemon.jp/en/manhole/desc/211/?is_modal=1", "source_last_checked": "2025-09-10T14:21:40Z"}
{"id": "212", "title": "Tokorozawa", "prefecture": "Saitama", "lat": 35.786887, "lng": 139.472881, "pokemons": ["Dragonair", "Skarmory"], "detail_url": "https://local.pokemon.jp/en/manhole/desc/212/?is_modal=1", "source_last_checked": "2025-09-10T14:21:41Z"}
{"id": "213", "title": "Tokorozawa", "prefecture": "Saitama", "lat": 35.798734, "lng": 139.471991, "pokemons": ["Dragonite"], "detail_url": "https://local.pokemon.jp/en/manhole/desc/213/?is_modal=1", "source_last_checked": "2025-09-10T14:21:42Z"}
{"id": "214", "title": "Asahikawa", "prefecture": "", "lat": 43.7595958, "lng": 142.3485094, "pokemons": ["Alolan Vulpix", "Eiscue", "Cubchoo"], "detail_url": "https://local.pokemon.jp/en/manhole/desc/214/?is_modal=1", "source_last_checked": "2025-09-10T14:21:42Z"}
{"id": "215", "title": "Kushiro", "prefecture": "", "lat": 43.144027, "lng": 144.14549, "pokemons": ["Alolan Vulpix", "Decidueye"], "detail_url": "https://local.pokemon.jp/en/manhole/desc/215/?is_modal=1", "source_last_checked": "2025-09-10T14:21:43Z"}
{"id": "216", "title": "Obihiro", "prefecture": "", "lat": 42.918205, "lng": 143.202563, "pokemons": ["Vulpix", "Alolan Vulpix", "Mudbray"], "detail_url": "https://local.pokemon.jp/en/manhole/desc/216/?is_modal=1", "source_last_checked": "2025-09-10T14:21:44Z"}
{"id": "217", "title": "Abashiri", "prefecture": "", "lat": 44.021949, "lng": 144.274423, "pokemons": ["Alolan Vulpix", "Weavile"], "detail_url": "https://local.pokemon.jp/en/manhole/desc/217/?is_modal=1", "source_last_checked": "2025-09-10T14:21:45Z"}
{"id": "218", "title": "Akaigawa", "prefecture": "", "lat": 43.05125, "lng": 140.844262, "pokemons": ["Alolan Vulpix", "Vanillite", "Hatenna"], "detail_url": "https://local.pokemon.jp/en/manhole/desc/218/?is_modal=1", "source_last_checked": "2025-09-10T14:21:46Z"}
{"id": "219", "title": "Higashikawa", "prefecture": "", "lat": 43.698404, "lng": 142.507039, "pokemons": ["Alolan Vulpix", "Dialga"], "detail_url": "https://local.pokemon.jp/en/manhole/desc/219/?is_modal=1", "source_last_checked": "2025-09-10T14:21:46Z"}
{"id": "220", "title": "Shari", "prefecture": "", "lat": 44.06884, "lng": 144.99062, "pokemons": ["Vulpix", "Palkia"], "detail_url": "https://local.pokemon.jp/en/manhole/desc/220/?is_modal=1", "source_last_checked": "2025-09-10T14:21:47Z"}
{"id": "221", "title": "Erimo", "prefecture": "", "lat": 42.01782, "lng": 143.14619, "pokemons": ["Alolan Vulpix", "Lycanroc"], "detail_url": "https://local.pokemon.jp/en/manhole/desc/221/?is_modal=1", "source_last_checked": "2025-09-10T14:21:48Z"}
{"id": "222", "title": "Katori", "prefecture": "Chiba", "lat": 35.894417, "lng": 140.493902, "pokemons": ["Galarian Farfetch’d"], "detail_url": "https://local.pokemon.jp/en/manhole/desc/222/?is_modal=1", "source_last_checked": "2025-09-10T14:21:49Z"}
{"id": "223", "title": "Katori", "prefecture": "Chiba", "lat": 35.888376, "lng": 140.497568, "pokemons": ["Rookidee", "Falinks"], "detail_url": "https://local.pokemon.jp/en/manhole/desc/223/?is_modal=1", "source_last_checked": "2025-09-10T14:21:50Z"}
{"id": "224", "title": "Katori", "prefecture": "Chiba", "lat": 35.928206, "lng": 140.523401, "pokemons": ["Florges", "Fletchling"], "detail_url": "https://local.pokemon.jp/en/manhole/desc/224/?is_modal=1", "source_last_checked": "2025-09-10T14:21:50Z"}
{"id": "225", "title": "Katori", "prefecture": "Chiba", "lat": 35.896204, "lng": 140.506419, "pokemons": ["Lotad", "Seedot", "Staravia"], "detail_url": "https://local.pokemon.jp/en/manhole/desc/225/?is_modal=1", "source_last_checked": "2025-09-10T14:21:51Z"}
{"id": "226", "title": "Utsunomiya", "prefecture": "Tochigi", "lat": 36.56077, "lng": 139.90949, "pokemons": ["Electabuzz", "Skwovet"], "detail_url": "https://local.pokemon.jp/en/manhole/desc/226/?is_modal=1", "source_last_checked": "2025-09-10T14:21:52Z"}
{"id": "227", "title": "Utsunomiya", "prefecture": "Tochigi", "lat": 36.63422, "lng": 139.83102, "pokemons": ["Electrike", "Crustle"], "detail_url": "https://local.pokemon.jp/en/manhole/desc/227/?is_modal=1", "source_last_checked": "2025-09-10T14:21:53Z"}
{"id": "228", "title": "Utsunomiya", "prefecture": "Tochigi", "lat": 36.57228, "lng": 139.88722, "pokemons": ["Thundurus"], "detail_url": "https://local.pokemon.jp/en/manhole/desc/228/?is_modal=1", "source_last_checked": "2025-09-10T14:21:53Z"}
{"id": "229", "title": "Urasoe", "prefecture": "", "lat": 26.245559, "lng": 127.687899, "pokemons": ["Solrock", "Skiploom"], "detail_url": "https://local.pokemon.jp/en/manhole/desc/229/?is_modal=1", "source_last_checked": "2025-09-10T14:21:54Z"}
{"id": "230", "title": "Nago", "prefecture": "", "lat": 26.587352, "lng": 127.985744, "pokemons": ["Emolga", "Pikipek"], "detail_url": "https://local.pokemon.jp/en/manhole/desc/230/?is_modal=1", "source_last_checked": "2025-09-10T14:21:55Z"}
{"id": "231", "title": "Itoman", "prefecture": "", "lat": 26.13828, "lng": 127.661336, "pokemons": ["Wartortle", "Sandygast"], "detail_url": "https://local.pokemon.jp/en/manhole/desc/231/?is_modal=1", "source_last_checked": "2025-09-10T14:21:56Z"}
{"id": "232", "title": "Motobu", "prefecture": "", "lat": 26.691694, "lng": 127.877972, "pokemons": ["Wailord"], "detail_url": "https://local.pokemon.jp/en/manhole/desc/232/?is_modal=1", "source_last_checked": "2025-09-10T14:21:57Z"}
{"id": "233", "title": "Tomigusuku", "prefecture": "", "lat": 26.15755646, "lng": 127.656121, "pokemons": ["Axew", "Jangmo-o"], "detail_url": "https://local.pokemon.jp/en/manhole/desc/233/?is_modal=1", "source_last_checked": "2025-09-10T14:21:58Z"}
{"id": "234", "title": "Nanjo", "prefecture": "", "lat": 26.169111, "lng": 127.827083, "pokemons": ["Seviper", "Zangoose"], "detail_url": "https://local.pokemon.jp/en/manhole/desc/234/?is_modal=1", "source_last_checked": "2025-09-10T14:21:58Z"}
{"id": "235", "title": "Ishigaki", "prefecture": "", "lat": 24.337418, "lng": 124.156947, "pokemons": ["Mantine", "Remoraid"], "detail_url": "https://local.pokemon.jp/en/manhole/desc/235/?is_modal=1", "source_last_checked": "2025-09-10T14:21:59Z"}
{"id": "236", "title": "Miyakojima", "prefecture": "", "lat": 24.734962, "lng": 125.263088, "pokemons": ["Kyogre"], "detail_url": "https://local.pokemon.jp/en/manhole/desc/236/?is_modal=1", "source_last_checked": "2025-09-10T14:22:00Z"}
{"id": "237", "title": "Koka", "prefecture": "Shiga", "lat": 34.919591, "lng": 136.170196, "pokemons": ["Greninja"], "detail_url": "https://local.pokemon.jp/en/manhole/desc/237/?is_modal=1", "source_last_checked": "2025-09-10T14:22:01Z"}
{"id": "238", "title": "Koka", "prefecture": "Shiga", "lat": 34.960528, "lng": 136.165168, "pokemons": ["Greninja"], "detail_url": "https://local.pokemon.jp/en/manhole/desc/238/?is_modal=1", "source_last_checked": "2025-09-10T14:22:02Z"}
{"id": "239", "title": "Koka", "prefecture": "Shiga", "lat": 34.900437, "lng": 136.229399, "pokemons": ["Greninja", "Frogadier"], "detail_url": "https://local.pokemon.jp/en/manhole/desc/239/?is_modal=1", "source_last_checked": "2025-09-10T14:22:02Z"}
{"id": "240", "title": "Tsu", "prefecture": "", "lat": 34.718493, "lng": 136.5108, "pokemons": ["Oshawott"], "detail_url": "https://local.pokemon.jp/en/manhole/desc/240/?is_modal=1", "source_last_checked": "2025-09-10T14:22:03Z"}
{"id": "241", "title": "Yokkaichi", "prefecture": "", "lat": 34.952407, "lng": 136.611964, "pokemons": ["Oshawott", "Samurott"], "detail_url": "https://local.pokemon.jp/en/manhole/desc/241/?is_modal=1", "source_last_checked": "2025-09-10T14:22:04Z"}
{"id": "242", "title": "Ise", "prefecture": "", "lat": 34.487787, "lng": 136.707097, "pokemons": ["Oshawott", "Chingling"], "detail_url": "https://local.pokemon.jp/en/manhole/desc/242/?is_modal=1", "source_last_checked": "2025-09-10T14:22:05Z"}
{"id": "243", "title": "Toba", "prefecture": "", "lat": 34.48691, "lng": 136.844825, "pokemons": ["Oshawott", "Dewgong"], "detail_url": "https://local.pokemon.jp/en/manhole/desc/243/?is_modal=1", "source_last_checked": "2025-09-10T14:22:06Z"}
{"id": "244", "title": "Kumano", "prefecture": "", "lat": 33.891753, "lng": 136.116125, "pokemons": ["Oshawott", "Stufful"], "detail_url": "https://local.pokemon.jp/en/manhole/desc/244/?is_modal=1", "source_last_checked": "2025-09-10T14:22:06Z"}
{"id": "245", "title": "Shima", "prefecture": "", "lat": 34.275988, "lng": 136.898317, "pokemons": ["Oshawott", "Clamperl"], "detail_url": "https://local.pokemon.jp/en/manhole/desc/245/?is_modal=1", "source_last_checked": "2025-09-10T14:22:07Z"}
{"id": "246", "title": "Iga", "prefecture": "", "lat": 34.767543, "lng": 136.130081, "pokemons": ["Oshawott", "Accelgor"], "detail_url": "https://local.pokemon.jp/en/manhole/desc/246/?is_modal=1", "source_last_checked": "2025-09-10T14:22:08Z"}
{"id": "247", "title": "Fukushima", "prefecture": "", "lat": 37.80441, "lng": 140.41091, "pokemons": ["Chansey", "Morpeko"], "detail_url": "https://local.pokemon.jp/en/manhole/desc/247/?is_modal=1", "source_last_checked": "2025-09-10T14:22:09Z"}
{"id": "248", "title": "Aizuwakamatsu", "prefecture": "", "lat": 37.461146, "lng": 139.927445, "pokemons": ["Chansey", "Gallade"], "detail_url": "https://local.pokemon.jp/en/manhole/desc/248/?is_modal=1", "source_last_checked": "2025-09-10T14:22:10Z"}
{"id": "249", "title": "Koriyama", "prefecture": "", "lat": 37.396784, "lng": 140.35612, "pokemons": ["Chansey", "Jigglypuff"], "detail_url": "https://local.pokemon.jp/en/manhole/desc/249/?is_modal=1", "source_last_checked": "2025-09-10T14:22:10Z"}
{"id": "250", "title": "Minamiaizu", "prefecture": "", "lat": 37.2057204, "lng": 139.7778739, "pokemons": ["Chansey", "Timburr"], "detail_url": "https://local.pokemon.jp/en/manhole/desc/250/?is_modal=1", "source_last_checked": "2025-09-10T14:22:11Z"}
{"id": "251", "title": "Yanaizu", "prefecture": "", "lat": 37.528189, "lng": 139.722662, "pokemons": ["Chansey", "Happiny"], "detail_url": "https://local.pokemon.jp/en/manhole/desc/251/?is_modal=1", "source_last_checked": "2025-09-10T14:22:12Z"}
{"id": "252", "title": "Showa", "prefecture": "", "lat": 37.325691, "lng": 139.630641, "pokemons": ["Chansey", "Sewaddle"], "detail_url": "https://local.pokemon.jp/en/manhole/desc/252/?is_modal=1", "source_last_checked": "2025-09-10T14:22:13Z"}
{"id": "253", "title": "Futaba", "prefecture": "", "lat": 37.45745, "lng": 141.02692, "pokemons": ["Chansey", "Sunkern"], "detail_url": "https://local.pokemon.jp/en/manhole/desc/253/?is_modal=1", "source_last_checked": "2025-09-10T14:22:14Z"}
{"id": "254", "title": "Iitate", "prefecture": "", "lat": 37.698145, "lng": 140.735552, "pokemons": ["Chansey", "Floette"], "detail_url": "https://local.pokemon.jp/en/manhole/desc/254/?is_modal=1", "source_last_checked": "2025-09-10T14:22:14Z"}
{"id": "255", "title": "Saga", "prefecture": "Saga", "lat": 33.25075645, "lng": 130.2989299, "pokemons": ["Meowth"], "detail_url": "https://local.pokemon.jp/en/manhole/desc/255/?is_modal=1", "source_last_checked": "2025-09-10T14:22:15Z"}
{"id": "256", "title": "Saga", "prefecture": "Saga", "lat": 33.24833583, "lng": 130.3089011, "pokemons": ["Alolan Meowth"], "detail_url": "https://local.pokemon.jp/en/manhole/desc/256/?is_modal=1", "source_last_checked": "2025-09-10T14:22:16Z"}
{"id": "257", "title": "Saga", "prefecture": "Saga", "lat": 33.24900974, "lng": 130.3003128, "pokemons": ["Galarian Meowth"], "detail_url": "https://local.pokemon.jp/en/manhole/desc/257/?is_modal=1", "source_last_checked": "2025-09-10T14:22:17Z"}
{"id": "258", "title": "Hanamaki", "prefecture": "", "lat": 39.392034, "lng": 141.11169, "pokemons": ["Geodude", "Cosmog", "Rayquaza"], "detail_url": "https://local.pokemon.jp/en/manhole/desc/258/?is_modal=1", "source_last_checked": "2025-09-10T14:22:18Z"}
{"id": "259", "title": "Tono", "prefecture": "", "lat": 39.330638, "lng": 141.528872, "pokemons": ["Geodude", "Lombre", "Ludicolo"], "detail_url": "https://local.pokemon.jp/en/manhole/desc/259/?is_modal=1", "source_last_checked": "2025-09-10T14:22:18Z"}
{"id": "260", "title": "Ichinoseki", "prefecture": "", "lat": 38.98958, "lng": 141.25527, "pokemons": ["Geodude", "Roggenrola", "Rhyperior"], "detail_url": "https://local.pokemon.jp/en/manhole/desc/260/?is_modal=1", "source_last_checked": "2025-09-10T14:22:19Z"}
{"id": "261", "title": "Ninohe", "prefecture": "", "lat": 40.320335, "lng": 141.318849, "pokemons": ["Geodude", "Snorunt"], "detail_url": "https://local.pokemon.jp/en/manhole/desc/261/?is_modal=1", "source_last_checked": "2025-09-10T14:22:20Z"}
{"id": "262", "title": "Hachimantai", "prefecture": "", "lat": 39.87958, "lng": 141.099388, "pokemons": ["Geodude", "Amaura"], "detail_url": "https://local.pokemon.jp/en/manhole/desc/262/?is_modal=1", "source_last_checked": "2025-09-10T14:22:21Z"}
{"id": "263", "title": "Takizawa", "prefecture": "", "lat": 39.734, "lng": 141.07829, "pokemons": ["Geodude", "Mudbray", "Hawlucha"], "detail_url": "https://local.pokemon.jp/en/manhole/desc/263/?is_modal=1", "source_last_checked": "2025-09-10T14:22:21Z"}
{"id": "264", "title": "Iwate", "prefecture": "", "lat": 39.968579, "lng": 141.213736, "pokemons": ["Geodude", "Ditto", "Alolan Geodude"], "detail_url": "https://local.pokemon.jp/en/manhole/desc/264/?is_modal=1", "source_last_checked": "2025-09-10T14:22:22Z"}
{"id": "265", "title": "Shiwa", "prefecture": "", "lat": 39.554641, "lng": 141.158293, "pokemons": ["Geodude", "Steenee"], "detail_url": "https://local.pokemon.jp/en/manhole/desc/265/?is_modal=1", "source_last_checked": "2025-09-10T14:22:23Z"}
{"id": "266", "title": "Nishiwaga", "prefecture": "", "lat": 39.31446, "lng": 140.77649, "pokemons": ["Geodude", "Burmy", "Sawsbuck"], "detail_url": "https://local.pokemon.jp/en/manhole/desc/266/?is_modal=1", "source_last_checked": "2025-09-10T14:22:24Z"}
{"id": "267", "title": "Hiraizumi", "prefecture": "", "lat": 38.986635, "lng": 141.108167, "pokemons": ["Cresselia", "Lunatone"], "detail_url": "https://local.pokemon.jp/en/manhole/desc/267/?is_modal=1", "source_last_checked": "2025-09-10T14:22:25Z"}
{"id": "268", "title": "Karumai", "prefecture": "", "lat": 40.322649, "lng": 141.381779, "pokemons": ["Geodude", "Passimian", "Rockruff"], "detail_url": "https://local.pokemon.jp/en/manhole/desc/268/?is_modal=1", "source_last_checked": "2025-09-10T14:22:25Z"}
{"id": "269", "title": "Kunohe", "prefecture": "", "lat": 40.24854, "lng": 141.416759, "pokemons": ["Geodude", "Hoothoot", "Dartrix"], "detail_url": "https://local.pokemon.jp/en/manhole/desc/269/?is_modal=1", "source_last_checked": "2025-09-10T14:22:26Z"}
{"id": "270", "title": "Ichinohe", "prefecture": "", "lat": 40.20885, "lng": 141.30468, "pokemons": ["Geodude", "Baltoy"], "detail_url": "https://local.pokemon.jp/en/manhole/desc/270/?is_modal=1", "source_last_checked": "2025-09-10T14:22:27Z"}
{"id": "271", "title": "Toyohashi", "prefecture": "Aichi", "lat": 34.72096, "lng": 137.429448, "pokemons": ["Typhlosion"], "detail_url": "https://local.pokemon.jp/en/manhole/desc/271/?is_modal=1", "source_last_checked": "2025-09-10T14:22:28Z"}
{"id": "272", "title": "Toyohashi", "prefecture": "Aichi", "lat": 34.762599, "lng": 137.382958, "pokemons": ["Grubbin", "Ribombee"], "detail_url": "https://local.pokemon.jp/en/manhole/desc/272/?is_modal=1", "source_last_checked": "2025-09-10T14:22:29Z"}
{"id": "273", "title": "Toyohashi", "prefecture": "Aichi", "lat": 34.695901, "lng": 137.413953, "pokemons": ["Starmie", "Charjabug"], "detail_url": "https://local.pokemon.jp/en/manhole/desc/273/?is_modal=1", "source_last_checked": "2025-09-10T14:22:29Z"}
{"id": "274", "title": "Toyohashi", "prefecture": "Aichi", "lat": 34.768863, "lng": 137.393843, "pokemons": ["Kabuto", "Vikavolt"], "detail_url": "https://local.pokemon.jp/en/manhole/desc/274/?is_modal=1", "source_last_checked": "2025-09-10T14:22:30Z"}
{"id": "275", "title": "Toyama", "prefecture": "Toyama", "lat": 36.715615, "lng": 137.164366, "pokemons": ["Absol"], "detail_url": "https://local.pokemon.jp/en/manhole/desc/275/?is_modal=1", "source_last_checked": "2025-09-10T14:22:31Z"}
{"id": "276", "title": "Toyama", "prefecture": "Toyama", "lat": 36.70987, "lng": 137.213161, "pokemons": ["Inkay"], "detail_url": "https://local.pokemon.jp/en/manhole/desc/276/?is_modal=1", "source_last_checked": "2025-09-10T14:22:32Z"}
{"id": "277", "title": "Toyama", "prefecture": "Toyama", "lat": 36.692325, "lng": 137.210281, "pokemons": ["Ledyba", "Comfey"], "detail_url": "https://local.pokemon.jp/en/manhole/desc/277/?is_modal=1", "source_last_checked": "2025-09-10T14:22:33Z"}
{"id": "278", "title": "Tobetsu", "prefecture": "", "lat": 43.17716187047716, "lng": 141.4485234, "pokemons": ["Alolan Vulpix", "Sinistea", "Polteageist"], "detail_url": "https://local.pokemon.jp/en/manhole/desc/278/?is_modal=1", "source_last_checked": "2025-09-10T14:22:33Z"}
{"id": "279", "title": "Nihonmatsu", "prefecture": "", "lat": 37.593347, "lng": 140.464001, "pokemons": ["Chansey", "Swirlix"], "detail_url": "https://local.pokemon.jp/en/manhole/desc/279/?is_modal=1", "source_last_checked": "2025-09-10T14:22:34Z"}
{"id": "280", "title": "Date", "prefecture": "", "lat": 37.760799, "lng": 140.691402, "pokemons": ["Chansey", "Rillaboom"], "detail_url": "https://local.pokemon.jp/en/manhole/desc/280/?is_modal=1", "source_last_checked": "2025-09-10T14:22:35Z"}
{"id": "281", "title": "Kitashiobara", "prefecture": "", "lat": 37.656148, "lng": 140.089446, "pokemons": ["Chansey", "Vanillish"], "detail_url": "https://local.pokemon.jp/en/manhole/desc/281/?is_modal=1", "source_last_checked": "2025-09-10T14:22:36Z"}
{"id": "282", "title": "Iwanashiro", "prefecture": "", "lat": 37.53810178, "lng": 140.107569, "pokemons": ["Chansey", "Grotle", "Swanna"], "detail_url": "https://local.pokemon.jp/en/manhole/desc/282/?is_modal=1", "source_last_checked": "2025-09-10T14:22:37Z"}
{"id": "283", "title": "Aizumisato", "prefecture": "", "lat": 37.455169, "lng": 139.840297, "pokemons": ["Chansey", "Lilligant"], "detail_url": "https://local.pokemon.jp/en/manhole/desc/283/?is_modal=1", "source_last_checked": "2025-09-10T14:22:37Z"}
{"id": "284", "title": "Nishigo", "prefecture": "", "lat": 37.1399, "lng": 140.15467, "pokemons": ["Chansey", "Wooper"], "detail_url": "https://local.pokemon.jp/en/manhole/desc/284/?is_modal=1", "source_last_checked": "2025-09-10T14:22:38Z"}
{"id": "285", "title": "Yabuki", "prefecture": "", "lat": 37.21842, "lng": 140.335635, "pokemons": ["Chansey", "Talonflame"], "detail_url": "https://local.pokemon.jp/en/manhole/desc/285/?is_modal=1", "source_last_checked": "2025-09-10T14:22:39Z"}
{"id": "286", "title": "Furudono", "prefecture": "", "lat": 37.092891, "lng": 140.529308, "pokemons": ["Chansey", "Blissey"], "detail_url": "https://local.pokemon.jp/en/manhole/desc/286/?is_modal=1", "source_last_checked": "2025-09-10T14:22:40Z"}
{"id": "287", "title": "Miharu", "prefecture": "", "lat": 37.4433, "lng": 140.49124, "pokemons": ["Chansey", "Roserade"], "detail_url": "https://local.pokemon.jp/en/manhole/desc/287/?is_modal=1", "source_last_checked": "2025-09-10T14:22:41Z"}
{"id": "288", "title": "Shimonoseki", "prefecture": "Yamaguchi", "lat": 33.958211, "lng": 130.948691, "pokemons": ["Empoleon", "Wailmer"], "detail_url": "https://local.pokemon.jp/en/manhole/desc/288/?is_modal=1", "source_last_checked": "2025-09-10T14:22:41Z"}
{"id": "289", "title": "Shimonoseki", "prefecture": "Yamaguchi", "lat": 33.954627, "lng": 130.9416769, "pokemons": ["Chinchou", "Qwilfish"], "detail_url": "https://local.pokemon.jp/en/manhole/desc/289/?is_modal=1", "source_last_checked": "2025-09-10T14:22:42Z"}
{"id": "290", "title": "Shimonoseki", "prefecture": "Yamaguchi", "lat": 33.934094, "lng": 130.930909, "pokemons": ["Ekans"], "detail_url": "https://local.pokemon.jp/en/manhole/desc/290/?is_modal=1", "source_last_checked": "2025-09-10T14:22:43Z"}
{"id": "291", "title": "Shimonoseki", "prefecture": "Yamaguchi", "lat": 33.935457, "lng": 130.929705, "pokemons": ["Koffing"], "detail_url": "https://local.pokemon.jp/en/manhole/desc/291/?is_modal=1", "source_last_checked": "2025-09-10T14:22:44Z"}
{"id": "292", "title": "Kameyama", "prefecture": "", "lat": 34.8594415, "lng": 136.4474608, "pokemons": ["Oshawott", "Riolu", "Torterra"], "detail_url": "https://local.pokemon.jp/en/manhole/desc/292/?is_modal=1", "source_last_checked": "2025-09-10T14:24:41Z"}
{"id": "293", "title": "Asahi", "prefecture": "", "lat": 35.037263, "lng": 136.658857, "pokemons": ["Oshawott", "Whimsicott"], "detail_url": "https://local.pokemon.jp/en/manhole/desc/293/?is_modal=1", "source_last_checked": "2025-09-10T14:24:42Z"}
{"id": "294", "title": "Meiwa", "prefecture": "", "lat": 34.5399661, "lng": 136.6184925, "pokemons": ["Oshawott", "Bounsweet", "Florges"], "detail_url": "https://local.pokemon.jp/en/manhole/desc/294/?is_modal=1", "source_last_checked": "2025-09-10T14:24:43Z"}
{"id": "295", "title": "Odai", "prefecture": "", "lat": 34.356007, "lng": 136.34766, "pokemons": ["Oshawott", "Pansage", "Virizion"], "detail_url": "https://local.pokemon.jp/en/manhole/desc/295/?is_modal=1", "source_last_checked": "2025-09-10T14:24:45Z"}
{"id": "296", "title": "Watarai", "prefecture": "", "lat": 34.4320615, "lng": 136.6313249, "pokemons": ["Oshawott", "Marill", "Claydol"], "detail_url": "https://local.pokemon.jp/en/manhole/desc/296/?is_modal=1", "source_last_checked": "2025-09-10T14:24:46Z"}
{"id": "297", "title": "Kiho", "prefecture": "", "lat": 33.769742, "lng": 136.028632, "pokemons": ["Oshawott", "Tirtouga"], "detail_url": "https://local.pokemon.jp/en/manhole/desc/297/?is_modal=1", "source_last_checked": "2025-09-10T14:24:47Z"}
{"id": "298", "title": "Ayagawa", "prefecture": "", "lat": 34.247395, "lng": 133.9327735, "pokemons": ["Slowpoke", "Galarian Slowpoke", "Shellder"], "detail_url": "https://local.pokemon.jp/en/manhole/desc/298/?is_modal=1", "source_last_checked": "2025-09-10T14:24:48Z"}
{"id": "299", "title": "Kuji", "prefecture": "", "lat": 40.225538, "lng": 141.781703, "pokemons": ["Geodude", "Aerodactyl", "Bibarel"], "detail_url": "https://local.pokemon.jp/en/manhole/desc/299/?is_modal=1", "source_last_checked": "2025-09-10T14:24:49Z"}
{"id": "300", "title": "Tottori", "prefecture": "", "lat": 35.53395, "lng": 134.224478, "pokemons": ["Sandshrew", "Alolan Sandshrew", "Bunnelby"], "detail_url": "https://local.pokemon.jp/en/manhole/desc/300/?is_modal=1", "source_last_checked": "2025-09-10T14:24:50Z"}
{"id": "301", "title": "Kanazawa", "prefecture": "Ishikawa", "lat": 36.559162, "lng": 136.661926, "pokemons": ["Milotic"], "detail_url": "https://local.pokemon.jp/en/manhole/desc/301/?is_modal=1", "source_last_checked": "2025-09-10T14:24:51Z"}
{"id": "302", "title": "Muroran", "prefecture": "", "lat": 42.313837, "lng": 140.973986, "pokemons": ["Vulpix", "Alolan Vulpix", "Illumise"], "detail_url": "https://local.pokemon.jp/en/manhole/desc/302/?is_modal=1", "source_last_checked": "2025-09-10T14:24:52Z"}
{"id": "303", "title": "Kitami", "prefecture": "", "lat": 43.75359, "lng": 143.500587, "pokemons": ["Vulpix", "Alolan Vulpix"], "detail_url": "https://local.pokemon.jp/en/manhole/desc/303/?is_modal=1", "source_last_checked": "2025-09-10T14:24:52Z"}
{"id": "304", "title": "Utashinai", "prefecture": "", "lat": 43.503206, "lng": 142.005914, "pokemons": ["Vulpix", "Alolan Vulpix", "Joltik"], "detail_url": "https://local.pokemon.jp/en/manhole/desc/304/?is_modal=1", "source_last_checked": "2025-09-10T14:24:53Z"}
{"id": "305", "title": "Kikonai", "prefecture": "", "lat": 41.678024, "lng": 140.43558, "pokemons": ["Vulpix", "Alolan Vulpix", "Gossifleur"], "detail_url": "https://local.pokemon.jp/en/manhole/desc/305/?is_modal=1", "source_last_checked": "2025-09-10T14:24:54Z"}
{"id": "306", "title": "Sarufutsu", "prefecture": "", "lat": 45.329186, "lng": 142.177267, "pokemons": ["Vulpix", "Alolan Vulpix", "Aipom"], "detail_url": "https://local.pokemon.jp/en/manhole/desc/306/?is_modal=1", "source_last_checked": "2025-09-10T14:24:55Z"}
{"id": "307", "title": "Bihoro", "prefecture": "", "lat": 43.836455, "lng": 144.105878, "pokemons": ["Vulpix", "Alolan Vulpix", "Hoppip"], "detail_url": "https://local.pokemon.jp/en/manhole/desc/307/?is_modal=1", "source_last_checked": "2025-09-10T14:24:56Z"}
{"id": "308", "title": "Nabari", "prefecture": "", "lat": 34.626212, "lng": 136.088911, "pokemons": ["Oshawott", "Dewott"], "detail_url": "https://local.pokemon.jp/en/manhole/desc/308/?is_modal=1", "source_last_checked": "2025-09-10T14:24:56Z"}
{"id": "309", "title": "Kisosaki", "prefecture": "", "lat": 35.0755751, "lng": 136.7318048, "pokemons": ["Oshawott", "Machoke"], "detail_url": "https://local.pokemon.jp/en/manhole/desc/309/?is_modal=1", "source_last_checked": "2025-09-10T14:24:57Z"}
{"id": "310", "title": "Toin", "prefecture": "", "lat": 35.073792, "lng": 136.581108, "pokemons": ["Oshawott", "Mime Jr."], "detail_url": "https://local.pokemon.jp/en/manhole/desc/310/?is_modal=1", "source_last_checked": "2025-09-10T14:24:58Z"}
{"id": "311", "title": "Yokohama", "prefecture": "Kanagawa", "lat": 35.451037, "lng": 139.644154, "pokemons": ["Pikachu", "Raichu"], "detail_url": "https://local.pokemon.jp/en/manhole/desc/311/?is_modal=1", "source_last_checked": "2025-09-10T14:24:59Z"}
{"id": "312", "title": "Yokohama", "prefecture": "Kanagawa", "lat": 35.443707, "lng": 139.650904, "pokemons": ["Pikachu", "Pelipper"], "detail_url": "https://local.pokemon.jp/en/manhole/desc/312/?is_modal=1", "source_last_checked": "2025-09-10T14:25:00Z"}
{"id": "313", "title": "Yokohama", "prefecture": "Kanagawa", "lat": 35.458698, "lng": 139.638331, "pokemons": ["Pikachu", "Victini", "Munchlax"], "detail_url": "https://local.pokemon.jp/en/manhole/desc/313/?is_modal=1", "source_last_checked": "2025-09-10T14:25:00Z"}
{"id": "314", "title": "Yokohama", "prefecture": "Kanagawa", "lat": 35.453319, "lng": 139.631688, "pokemons": ["Pikachu", "Psyduck", "Machop"], "detail_url": "https://local.pokemon.jp/en/manhole/desc/314/?is_modal=1", "source_last_checked": "2025-09-10T14:25:01Z"}
{"id": "315", "title": "Dazaifu", "prefecture": "Fukuoka", "lat": 33.513335, "lng": 130.515174, "pokemons": ["Kirlia", "Sawsbuck", "Fletchling"], "detail_url": "https://local.pokemon.jp/en/manhole/desc/315/?is_modal=1", "source_last_checked": "2025-09-10T14:25:02Z"}
{"id": "316", "title": "Dazaifu", "prefecture": "Fukuoka", "lat": 33.519356, "lng": 130.531372, "pokemons": ["Alakazam", "Slowking", "Oranguru"], "detail_url": "https://local.pokemon.jp/en/manhole/desc/316/?is_modal=1", "source_last_checked": "2025-09-10T14:25:03Z"}
{"id": "317", "title": "Dazaifu", "prefecture": "Fukuoka", "lat": 33.505199, "lng": 130.516571, "pokemons": ["Aegislash"], "detail_url": "https://local.pokemon.jp/en/manhole/desc/317/?is_modal=1", "source_last_checked": "2025-09-10T14:25:04Z"}
{"id": "318", "title": "Akita", "prefecture": "Akita", "lat": 39.752642, "lng": 140.061295, "pokemons": ["Growlithe", "Rockruff", "Dachsbun"], "detail_url": "https://local.pokemon.jp/en/manhole/desc/318/?is_modal=1", "source_last_checked": "2025-09-10T14:25:05Z"}
{"id": "319", "title": "Yokote", "prefecture": "Akita", "lat": 39.293561, "lng": 140.545941, "pokemons": ["Fidough", "Snorunt"], "detail_url": "https://local.pokemon.jp/en/manhole/desc/319/?is_modal=1", "source_last_checked": "2025-09-10T14:25:05Z"}
{"id": "320", "title": "Oga", "prefecture": "Akita", "lat": 39.88201, "lng": 139.84772, "pokemons": ["Glalie", "Houndoom", "Granbull"], "detail_url": "https://local.pokemon.jp/en/manhole/desc/320/?is_modal=1", "source_last_checked": "2025-09-10T14:25:06Z"}
{"id": "321", "title": "Kazuno", "prefecture": "Akita", "lat": 40.181213, "lng": 140.785474, "pokemons": ["Cubone", "Galarian Yamask"], "detail_url": "https://local.pokemon.jp/en/manhole/desc/321/?is_modal=1", "source_last_checked": "2025-09-10T14:25:07Z"}
{"id": "322", "title": "Senboku", "prefecture": "Akita", "lat": 39.699992, "lng": 140.662631, "pokemons": ["Dragonair", "Rufflet"], "detail_url": "https://local.pokemon.jp/en/manhole/desc/322/?is_modal=1", "source_last_checked": "2025-09-10T14:25:08Z"}
{"id": "323", "title": "Kitakami", "prefecture": "", "lat": 39.281115, "lng": 141.122747, "pokemons": ["Golem", "Bisharp"], "detail_url": "https://local.pokemon.jp/en/manhole/desc/323/?is_modal=1", "source_last_checked": "2025-09-10T14:25:09Z"}
{"id": "324", "title": "Biei", "prefecture": "", "lat": 43.59198, "lng": 142.46372, "pokemons": ["Alolan Vulpix", "Hisuian Braviary"], "detail_url": "https://local.pokemon.jp/en/manhole/desc/324/?is_modal=1", "source_last_checked": "2025-09-10T14:25:10Z"}
{"id": "325", "title": "Matsuyama", "prefecture": "Ehime", "lat": 33.84106, "lng": 132.77024, "pokemons": ["Tsareena", "Bounsweet"], "detail_url": "https://local.pokemon.jp/en/manhole/desc/325/?is_modal=1", "source_last_checked": "2025-09-10T14:25:10Z"}
{"id": "326", "title": "Matsuyama", "prefecture": "Ehime", "lat": 33.84426, "lng": 132.74078, "pokemons": ["Escavalier", "Sirfetch’d"], "detail_url": "https://local.pokemon.jp/en/manhole/desc/326/?is_modal=1", "source_last_checked": "2025-09-10T14:25:11Z"}
{"id": "327", "title": "Naruto", "prefecture": "Tokushima", "lat": 34.224106, "lng": 134.636196, "pokemons": ["Suicune"], "detail_url": "https://local.pokemon.jp/en/manhole/desc/327/?is_modal=1", "source_last_checked": "2025-09-10T14:25:12Z"}
{"id": "328", "title": "Naruto", "prefecture": "Tokushima", "lat": 34.181955, "lng": 134.601709, "pokemons": ["Seadra", "Kingdra"], "detail_url": "https://local.pokemon.jp/en/manhole/desc/328/?is_modal=1", "source_last_checked": "2025-09-10T14:25:13Z"}
{"id": "329", "title": "Naruto", "prefecture": "Tokushima", "lat": 34.168084, "lng": 134.616371, "pokemons": ["Poliwag", "Poliwhirl", "Diglett"], "detail_url": "https://local.pokemon.jp/en/manhole/desc/329/?is_modal=1", "source_last_checked": "2025-09-10T14:25:14Z"}
{"id": "330", "title": "Suzuka", "prefecture": "", "lat": 34.823065, "lng": 136.584609, "pokemons": ["Oshawott", "Cyclizar"], "detail_url": "https://local.pokemon.jp/en/manhole/desc/330/?is_modal=1", "source_last_checked": "2025-09-10T14:25:15Z"}
{"id": "331", "title": "Kawagoe", "prefecture": "", "lat": 35.01731, "lng": 136.659834, "pokemons": ["Oshawott", "Taillow", "Surskit"], "detail_url": "https://local.pokemon.jp/en/manhole/desc/331/?is_modal=1", "source_last_checked": "2025-09-10T14:25:16Z"}
{"id": "332", "title": "Taki", "prefecture": "", "lat": 34.46611, "lng": 136.55374, "pokemons": ["Oshawott", "Lechonk", "Phanpy"], "detail_url": "https://local.pokemon.jp/en/manhole/desc/332/?is_modal=1", "source_last_checked": "2025-09-10T14:25:17Z"}
{"id": "333", "title": "Matsusaka", "prefecture": "", "lat": 34.578655, "lng": 136.519839, "pokemons": ["Oshawott", "Meowth"], "detail_url": "https://local.pokemon.jp/en/manhole/desc/333/?is_modal=1", "source_last_checked": "2025-09-10T14:25:18Z"}
{"id": "334", "title": "Tamashiro", "prefecture": "", "lat": 34.467979, "lng": 136.587695, "pokemons": ["Oshawott", "Spoink"], "detail_url": "https://local.pokemon.jp/en/manhole/desc/334/?is_modal=1", "source_last_checked": "2025-09-10T14:25:18Z"}
{"id": "335", "title": "Minamiise", "prefecture": "", "lat": 34.268997, "lng": 136.54891, "pokemons": ["Oshawott", "Ditto"], "detail_url": "https://local.pokemon.jp/en/manhole/desc/335/?is_modal=1", "source_last_checked": "2025-09-10T14:25:19Z"}
{"id": "336", "title": "Katsuyama", "prefecture": "", "lat": 36.056787, "lng": 136.492007, "pokemons": ["Dragonite", "Archen", "Tyrantrum"], "detail_url": "https://local.pokemon.jp/en/manhole/desc/336/?is_modal=1", "source_last_checked": "2025-09-10T14:25:20Z"}
{"id": "337", "title": "Awara", "prefecture": "", "lat": 36.215613, "lng": 136.234226, "pokemons": ["Dragonite", "Togetic", "Zigzagoon"], "detail_url": "https://local.pokemon.jp/en/manhole/desc/337/?is_modal=1", "source_last_checked": "2025-09-10T14:25:21Z"}
{"id": "338", "title": "Echizen-shi", "prefecture": "", "lat": 35.895286, "lng": 136.198727, "pokemons": ["Dragonite", "Toxel", "Honedge"], "detail_url": "https://local.pokemon.jp/en/manhole/desc/338/?is_modal=1", "source_last_checked": "2025-09-10T14:25:22Z"}
{"id": "339", "title": "Eiheiji-cho", "prefecture": "", "lat": 36.079891, "lng": 136.399312, "pokemons": ["Dragonite", "Kubfu"], "detail_url": "https://local.pokemon.jp/en/manhole/desc/339/?is_modal=1", "source_last_checked": "2025-09-10T14:25:23Z"}
{"id": "340", "title": "Takahama", "prefecture": "", "lat": 35.492951, "lng": 135.54556, "pokemons": ["Dragonite", "Tatsugiri"], "detail_url": "https://local.pokemon.jp/en/manhole/desc/340/?is_modal=1", "source_last_checked": "2025-09-10T14:25:24Z"}
{"id": "341", "title": "Mihama", "prefecture": "", "lat": 35.604507, "lng": 135.936876, "pokemons": ["Dragonite", "Mareanie", "Wiglett"], "detail_url": "https://local.pokemon.jp/en/manhole/desc/341/?is_modal=1", "source_last_checked": "2025-09-10T14:25:25Z"}
{"id": "342", "title": "Wakayama", "prefecture": "Wakayama", "lat": 34.2300173, "lng": 135.171405, "pokemons": ["Luxray", "Primarina"], "detail_url": "https://local.pokemon.jp/en/manhole/desc/342/?is_modal=1", "source_last_checked": "2025-09-10T14:25:25Z"}
{"id": "343", "title": "Koya", "prefecture": "Wakayama", "lat": 34.212091, "lng": 135.583052, "pokemons": ["Urshifu"], "detail_url": "https://local.pokemon.jp/en/manhole/desc/343/?is_modal=1", "source_last_checked": "2025-09-10T14:25:26Z"}
{"id": "344", "title": "Shirahama", "prefecture": "Wakayama", "lat": 33.675779, "lng": 135.387056, "pokemons": ["Pancham", "Finizen"], "detail_url": "https://local.pokemon.jp/en/manhole/desc/344/?is_modal=1", "source_last_checked": "2025-09-10T14:25:27Z"}
{"id": "345", "title": "Kushimoto", "prefecture": "Wakayama", "lat": 33.517997, "lng": 135.823074, "pokemons": ["Cleffa", "Elgyem", "Magnezone"], "detail_url": "https://local.pokemon.jp/en/manhole/desc/345/?is_modal=1", "source_last_checked": "2025-09-10T14:25:28Z"}
{"id": "346", "title": "Nachikatsuura", "prefecture": "Wakayama", "lat": 33.668973, "lng": 135.902917, "pokemons": ["Celebi"], "detail_url": "https://local.pokemon.jp/en/manhole/desc/346/?is_modal=1", "source_last_checked": "2025-09-10T14:25:29Z"}
{"id": "347", "title": "Shizuoka", "prefecture": "Shizuoka", "lat": 34.977499, "lng": 138.382564, "pokemons": ["Ivysaur", "Staraptor"], "detail_url": "https://local.pokemon.jp/en/manhole/desc/347/?is_modal=1", "source_last_checked": "2025-09-10T14:25:30Z"}
{"id": "348", "title": "Hamamatsu", "prefecture": "Shizuoka", "lat": 34.704017, "lng": 137.732587, "pokemons": ["Meloetta", "Eelektross"], "detail_url": "https://local.pokemon.jp/en/manhole/desc/348/?is_modal=1", "source_last_checked": "2025-09-10T14:25:31Z"}
{"id": "349", "title": "Numazu", "prefecture": "Shizuoka", "lat": 35.081579, "lng": 138.854731, "pokemons": ["Huntail", "Relicanth", "Gorebyss"], "detail_url": "https://local.pokemon.jp/en/manhole/desc/349/?is_modal=1", "source_last_checked": "2025-09-10T14:25:32Z"}
{"id": "350", "title": "Fuji", "prefecture": "Shizuoka", "lat": 35.161532, "lng": 138.617705, "pokemons": ["Moltres"], "detail_url": "https://local.pokemon.jp/en/manhole/desc/350/?is_modal=1", "source_last_checked": "2025-09-10T14:25:33Z"}
{"id": "351", "title": "Izu", "prefecture": "Shizuoka", "lat": 34.970285, "lng": 138.92774, "pokemons": ["Pancham", "Pangoro"], "detail_url": "https://local.pokemon.jp/en/manhole/desc/351/?is_modal=1", "source_last_checked": "2025-09-10T14:25:33Z"}
{"id": "352", "title": "Uji", "prefecture": "Kyoto", "lat": 34.890627, "lng": 135.809787, "pokemons": ["Scorbunny", "Spinda"], "detail_url": "https://local.pokemon.jp/en/manhole/desc/352/?is_modal=1", "source_last_checked": "2025-09-10T14:25:34Z"}
{"id": "353", "title": "Uji", "prefecture": "Kyoto", "lat": 34.895547, "lng": 135.805962, "pokemons": ["Poltchageist", "Sinistcha"], "detail_url": "https://local.pokemon.jp/en/manhole/desc/353/?is_modal=1", "source_last_checked": "2025-09-10T14:25:35Z"}
{"id": "354", "title": "Nagasaki", "prefecture": "", "lat": 32.753712, "lng": 129.86735, "pokemons": ["Ampharos", "Togepi", "Wingull"], "detail_url": "https://local.pokemon.jp/en/manhole/desc/354/?is_modal=1", "source_last_checked": "2025-09-10T14:25:36Z"}
{"id": "355", "title": "Sasebo", "prefecture": "", "lat": 33.163987, "lng": 129.724169, "pokemons": ["Ampharos", "Treecko", "Lilligant"], "detail_url": "https://local.pokemon.jp/en/manhole/desc/355/?is_modal=1", "source_last_checked": "2025-09-10T14:25:37Z"}
{"id": "356", "title": "Omura", "prefecture": "", "lat": 32.933111, "lng": 129.958278, "pokemons": ["Ampharos", "Cherrim"], "detail_url": "https://local.pokemon.jp/en/manhole/desc/356/?is_modal=1", "source_last_checked": "2025-09-10T14:25:37Z"}
{"id": "357", "title": "Unzen", "prefecture": "", "lat": 32.74085, "lng": 130.261106, "pokemons": ["Ampharos", "Torkoal", "Camerupt"], "detail_url": "https://local.pokemon.jp/en/manhole/desc/357/?is_modal=1", "source_last_checked": "2025-09-10T14:25:38Z"}
{"id": "358", "title": "Shinkamigoto", "prefecture": "", "lat": 32.986402, "lng": 129.112745, "pokemons": ["Ampharos", "Palafin"], "detail_url": "https://local.pokemon.jp/en/manhole/desc/358/?is_modal=1", "source_last_checked": "2025-09-10T14:25:39Z"}
{"id": "359", "title": "Kakamigahara", "prefecture": "Gifu", "lat": 35.37067, "lng": 136.807773, "pokemons": ["Whiscash", "Barboach"], "detail_url": "https://local.pokemon.jp/en/manhole/desc/359/?is_modal=1", "source_last_checked": "2025-09-10T14:25:40Z"}
{"id": "360", "title": "Gero", "prefecture": "Gifu", "lat": 35.807771, "lng": 137.242963, "pokemons": ["Seismitoad", "Palpitoad", "Tympole"], "detail_url": "https://local.pokemon.jp/en/manhole/desc/360/?is_modal=1", "source_last_checked": "2025-09-10T14:25:41Z"}
{"id": "361", "title": "Seki", "prefecture": "Gifu", "lat": 35.490472, "lng": 136.91225, "pokemons": ["Cramorant"], "detail_url": "https://local.pokemon.jp/en/manhole/desc/361/?is_modal=1", "source_last_checked": "2025-09-10T14:25:41Z"}
{"id": "362", "title": "Sekigahara", "prefecture": "Gifu", "lat": 35.36402, "lng": 136.46842, "pokemons": ["Kingambit", "Pawniard"], "detail_url": "https://local.pokemon.jp/en/manhole/desc/362/?is_modal=1", "source_last_checked": "2025-09-10T14:25:42Z"}
{"id": "363", "title": "Takayama", "prefecture": "Gifu", "lat": 36.144911, "lng": 137.257235, "pokemons": ["Pansage", "Pansear", "Panpour"], "detail_url": "https://local.pokemon.jp/en/manhole/desc/363/?is_modal=1", "source_last_checked": "2025-09-10T14:25:43Z"}
{"id": "364", "title": "Ono", "prefecture": "", "lat": 35.9845016, "lng": 136.4859314, "pokemons": ["Dragonite"], "detail_url": "https://local.pokemon.jp/en/manhole/desc/364/?is_modal=1", "source_last_checked": "2025-09-10T14:25:44Z"}
{"id": "365", "title": "Tsuruga", "prefecture": "", "lat": 35.661865, "lng": 136.074281, "pokemons": ["Dragonite", "Stunfisk"], "detail_url": "https://local.pokemon.jp/en/manhole/desc/365/?is_modal=1", "source_last_checked": "2025-09-10T14:25:44Z"}
{"id": "366", "title": "Minami Echizen", "prefecture": "", "lat": 35.831454, "lng": 136.201365, "pokemons": ["Dragonite", "Butterfree"], "detail_url": "https://local.pokemon.jp/en/manhole/desc/366/?is_modal=1", "source_last_checked": "2025-09-10T14:25:45Z"}
{"id": "367", "title": "Obama", "prefecture": "", "lat": 35.494981, "lng": 135.741761, "pokemons": ["Dragonite", "Rookidee"], "detail_url": "https://local.pokemon.jp/en/manhole/desc/367/?is_modal=1", "source_last_checked": "2025-09-10T14:25:46Z"}
{"id": "368", "title": "Ikeda", "prefecture": "", "lat": 35.890505, "lng": 136.339213, "pokemons": ["Dragonite", "Dragonair", "Dratini"], "detail_url": "https://local.pokemon.jp/en/manhole/desc/368/?is_modal=1", "source_last_checked": "2025-09-10T14:25:47Z"}
{"id": "369", "title": "Aizubange", "prefecture": "", "lat": 37.56046, "lng": 139.821186, "pokemons": ["Chansey", "Machamp"], "detail_url": "https://local.pokemon.jp/en/manhole/desc/369/?is_modal=1", "source_last_checked": "2025-09-10T14:25:48Z"}
{"id": "370", "title": "Kagamiishi", "prefecture": "", "lat": 37.251117, "lng": 140.347153, "pokemons": ["Chansey", "Miltank", "Mareep"], "detail_url": "https://local.pokemon.jp/en/manhole/desc/370/?is_modal=1", "source_last_checked": "2025-09-10T14:25:48Z"}
{"id": "371", "title": "Tanagura", "prefecture": "", "lat": 37.029237, "lng": 140.387151, "pokemons": ["Chansey", "Politoed", "Drednaw"], "detail_url": "https://local.pokemon.jp/en/manhole/desc/371/?is_modal=1", "source_last_checked": "2025-09-10T14:25:49Z"}
{"id": "372", "title": "Yugawa", "prefecture": "", "lat": 37.55742, "lng": 139.862167, "pokemons": ["Chansey", "Cutiefly", "Ralts"], "detail_url": "https://local.pokemon.jp/en/manhole/desc/372/?is_modal=1", "source_last_checked": "2025-09-10T14:25:50Z"}
{"id": "373", "title": "Kunimi", "prefecture": "", "lat": 37.872639, "lng": 140.546861, "pokemons": ["Chansey", "Happiny", "Swadloon", "Audino"], "detail_url": "https://local.pokemon.jp/en/manhole/desc/373/?is_modal=1", "source_last_checked": "2025-09-10T14:25:51Z"}
{"id": "374", "title": "Hirono", "prefecture": "", "lat": 37.23297, "lng": 141.0018, "pokemons": ["Chansey", "Yanma"], "detail_url": "https://local.pokemon.jp/en/manhole/desc/374/?is_modal=1", "source_last_checked": "2025-09-10T14:25:52Z"}
{"id": "375", "title": "Hirata", "prefecture": "", "lat": 37.262128, "lng": 140.547538, "pokemons": ["Chansey", "Capsakid", "Scovillain"], "detail_url": "https://local.pokemon.jp/en/manhole/desc/375/?is_modal=1", "source_last_checked": "2025-09-10T14:25:52Z"}
{"id": "376", "title": "Shirakawa", "prefecture": "", "lat": 37.1296, "lng": 140.212974, "pokemons": ["Chansey", "Darumaka"], "detail_url": "https://local.pokemon.jp/en/manhole/desc/376/?is_modal=1", "source_last_checked": "2025-09-10T14:25:53Z"}
{"id": "377", "title": "Hamada", "prefecture": "Shimane", "lat": 34.88924, "lng": 132.07129, "pokemons": ["Omastar", "Stunfisk"], "detail_url": "https://local.pokemon.jp/en/manhole/desc/377/?is_modal=1", "source_last_checked": "2025-09-10T14:25:54Z"}
{"id": "378", "title": "Izumo", "prefecture": "Shimane", "lat": 35.4330088, "lng": 132.629353, "pokemons": ["Tandemaus", "Luvdisc"], "detail_url": "https://local.pokemon.jp/en/manhole/desc/378/?is_modal=1", "source_last_checked": "2025-09-10T14:25:55Z"}
{"id": "379", "title": "Oda", "prefecture": "Shimane", "lat": 35.145782, "lng": 132.413128, "pokemons": ["Gallade", "Hydreigon"], "detail_url": "https://local.pokemon.jp/en/manhole/desc/379/?is_modal=1", "source_last_checked": "2025-09-10T14:25:56Z"}
{"id": "380", "title": "Yasugi", "prefecture": "Shimane", "lat": 35.428407, "lng": 133.259012, "pokemons": ["Barboach", "Mr. Mime"], "detail_url": "https://local.pokemon.jp/en/manhole/desc/380/?is_modal=1", "source_last_checked": "2025-09-10T14:25:56Z"}
{"id": "381", "title": "Okinoshima", "prefecture": "Shimane", "lat": 36.17725248, "lng": 133.3302467, "pokemons": ["Dedenne", "Lopunny"], "detail_url": "https://local.pokemon.jp/en/manhole/desc/381/?is_modal=1", "source_last_checked": "2025-09-10T14:25:57Z"}
{"id": "382", "title": "Uji", "prefecture": "Kyoto", "lat": 34.892561, "lng": 135.784525, "pokemons": ["Pikachu"], "detail_url": "https://local.pokemon.jp/en/manhole/desc/382/?is_modal=1", "source_last_checked": "2025-09-10T14:25:58Z"}
{"id": "383", "title": "Kuwana", "prefecture": "", "lat": 35.08304, "lng": 136.703006, "pokemons": ["Oshawott", "Hakamo-o", "Loudred"], "detail_url": "https://local.pokemon.jp/en/manhole/desc/383/?is_modal=1", "source_last_checked": "2025-09-10T14:25:59Z"}
{"id": "384", "title": "Owase", "prefecture": "", "lat": 34.06078, "lng": 136.216025, "pokemons": ["Oshawott", "Perrserker"], "detail_url": "https://local.pokemon.jp/en/manhole/desc/384/?is_modal=1", "source_last_checked": "2025-09-10T14:25:59Z"}
{"id": "385", "title": "Inabe", "prefecture": "", "lat": 35.15788, "lng": 136.51618, "pokemons": ["Oshawott", "Plusle", "Minun"], "detail_url": "https://local.pokemon.jp/en/manhole/desc/385/?is_modal=1", "source_last_checked": "2025-09-10T14:26:00Z"}
{"id": "386", "title": "Komono", "prefecture": "", "lat": 35.019585, "lng": 136.506542, "pokemons": ["Oshawott", "Skiddo", "Gogoat"], "detail_url": "https://local.pokemon.jp/en/manhole/desc/386/?is_modal=1", "source_last_checked": "2025-09-10T14:26:01Z"}
{"id": "387", "title": "Taiki", "prefecture": "", "lat": 34.297193, "lng": 136.399061, "pokemons": ["Oshawott", "Reuniclus", "Duosion", "Miltank"], "detail_url": "https://local.pokemon.jp/en/manhole/desc/387/?is_modal=1", "source_last_checked": "2025-09-10T14:26:02Z"}
{"id": "388", "title": "Kihoku", "prefecture": "", "lat": 34.216869, "lng": 136.346376, "pokemons": ["Oshawott", "Alomomola"], "detail_url": "https://local.pokemon.jp/en/manhole/desc/388/?is_modal=1", "source_last_checked": "2025-09-10T14:26:03Z"}
{"id": "389", "title": "Mihama", "prefecture": "", "lat": 33.80391, "lng": 136.04345, "pokemons": ["Oshawott", "Pachirisu"], "detail_url": "https://local.pokemon.jp/en/manhole/desc/389/?is_modal=1", "source_last_checked": "2025-09-10T14:26:04Z"}
{"id": "390", "title": "Kami", "prefecture": "", "lat": 33.695608, "lng": 133.874784, "pokemons": ["Quagsire", "Pawniard", "Deino"], "detail_url": "https://local.pokemon.jp/en/manhole/desc/390/?is_modal=1", "source_last_checked": "2025-09-10T14:26:04Z"}
{"id": "391", "title": "Nahari", "prefecture": "", "lat": 33.425249, "lng": 134.017781, "pokemons": ["Quagsire", "Cacturne", "Corsola"], "detail_url": "https://local.pokemon.jp/en/manhole/desc/391/?is_modal=1", "source_last_checked": "2025-09-10T14:26:05Z"}
{"id": "392", "title": "Otoyo", "prefecture": "", "lat": 33.749067, "lng": 133.684166, "pokemons": ["Quagsire", "Altaria"], "detail_url": "https://local.pokemon.jp/en/manhole/desc/392/?is_modal=1", "source_last_checked": "2025-09-10T14:26:06Z"}
{"id": "393", "title": "Hidaka", "prefecture": "", "lat": 33.5335561, "lng": 133.3712561, "pokemons": ["Quagsire", "Dewpider", "Yanma"], "detail_url": "https://local.pokemon.jp/en/manhole/desc/393/?is_modal=1", "source_last_checked": "2025-09-10T14:26:07Z"}
{"id": "394", "title": "Tsuno", "prefecture": "", "lat": 33.476856, "lng": 133.004184, "pokemons": ["Quagsire", "Lileep", "Cleffa"], "detail_url": "https://local.pokemon.jp/en/manhole/desc/394/?is_modal=1", "source_last_checked": "2025-09-10T14:26:08Z"}
{"id": "395", "title": "Otsuki", "prefecture": "", "lat": 32.767739, "lng": 132.627259, "pokemons": ["Quagsire", "Phione", "Finneon"], "detail_url": "https://local.pokemon.jp/en/manhole/desc/395/?is_modal=1", "source_last_checked": "2025-09-10T14:26:08Z"}
{"id": "396", "title": "Mihara", "prefecture": "", "lat": 32.922536, "lng": 132.83982, "pokemons": ["Quagsire", "Clodsire"], "detail_url": "https://local.pokemon.jp/en/manhole/desc/396/?is_modal=1", "source_last_checked": "2025-09-10T14:26:09Z"}
{"id": "397", "title": "Kitakami", "prefecture": "", "lat": 39.27362, "lng": 141.1282, "pokemons": ["Geodude", "Ogerpon", "Dipplin"], "detail_url": "https://local.pokemon.jp/en/manhole/desc/397/?is_modal=1", "source_last_checked": "2025-09-10T14:26:10Z"}
{"id": "398", "title": "Morioka", "prefecture": "", "lat": 39.846667, "lng": 141.173111, "pokemons": ["Geodude", "Alolan Geodude", "Sudowoodo"], "detail_url": "https://local.pokemon.jp/en/manhole/desc/398/?is_modal=1", "source_last_checked": "2025-09-10T14:26:11Z"}
{"id": "399", "title": "Yamagata", "prefecture": "Yamagata", "lat": 38.248477, "lng": 140.325854, "pokemons": ["Skiploom", "Vileplume", "Lilligant"], "detail_url": "https://local.pokemon.jp/en/manhole/desc/399/?is_modal=1", "source_last_checked": "2025-09-10T14:26:12Z"}
{"id": "400", "title": "Sagae", "prefecture": "Yamagata", "lat": 38.363842, "lng": 140.26637, "pokemons": ["Cherrim", "Cherubi"], "detail_url": "https://local.pokemon.jp/en/manhole/desc/400/?is_modal=1", "source_last_checked": "2025-09-10T14:26:12Z"}
{"id": "401", "title": "Okura", "prefecture": "Yamagata", "lat": 38.611083, "lng": 140.169653, "pokemons": ["Lampent", "Galarian Darmanitan", "Braixen"], "detail_url": "https://local.pokemon.jp/en/manhole/desc/401/?is_modal=1", "source_last_checked": "2025-09-10T14:26:13Z"}
{"id": "402", "title": "Oguni", "prefecture": "Yamagata", "lat": 38.072713, "lng": 139.73128, "pokemons": ["Cubchoo", "Beartic", "Cetoddle"], "detail_url": "https://local.pokemon.jp/en/manhole/desc/402/?is_modal=1", "source_last_checked": "2025-09-10T14:26:14Z"}
{"id": "403", "title": "Tsuruoka", "prefecture": "Yamagata", "lat": 38.721151, "lng": 139.684635, "pokemons": ["Jellicent", "Tentacruel", "Tentacool", "Frillish"], "detail_url": "https://local.pokemon.jp/en/manhole/desc/403/?is_modal=1", "source_last_checked": "2025-09-10T14:26:15Z"}
{"id": "404", "title": "Nagoya", "prefecture": "Aichi", "lat": 35.1831277, "lng": 136.9045981, "pokemons": ["Magikarp", "Komala"], "detail_url": "https://local.pokemon.jp/en/manhole/desc/404/?is_modal=1", "source_last_checked": "2025-09-10T14:26:15Z"}
